[{"TGTLOCATION": "SAARBRUCKEN", "COUNTRY": "UK", "LONGITUDE": 7, "TGTCOUNTRY": "GERMANY", "MSNDATE": "10/16/1917", "LATITUDE": 49.233333, "MDS": "AIRCO DH4 DAY BOMBER", "NUMBEROFPLANESATTACKING": 35}, {"TGTLOCATION": "WADGASSEN & BOUS", "COUNTRY": "UK", "LONGITUDE": 6.783333, "TGTCOUNTRY": "GERMANY", "MSNDATE": "10/20/1917", "LATITUDE": 49.266667, "MDS": "AIRCO DH4 DAY BOMBER", "NUMBEROFPLANESATTACKING": 4}, {"TGTLOCATION": "SAARBRUCKEN, ETC", "COUNTRY": "UK", "LONGITUDE": 7, "TGTCOUNTRY": "GERMANY", "MSNDATE": "10/23/1917", "LATITUDE": 49.233333, "MDS": "FE2B", "NUMBEROFPLANESATTACKING": 5}, {"TGTLOCATION": "SAARBRUCKEN, ETC", "COUNTRY": "UK", "LONGITUDE": 7, "TGTCOUNTRY": "GERMANY", "MSNDATE": "10/23/1917", "LATITUDE": 49.233333, "MDS": "HADLEY PAGE O/100", "NUMBEROFPLANESATTACKING": 34}, {"TGTLOCATION": "SAARBRUCKEN & OTHERS", "COUNTRY": "UK", "LONGITUDE": 7, "TGTCOUNTRY": "GERMANY", "MSNDATE": "10/28/1917", "LATITUDE": 49.233333, "MDS": "FE2B", "NUMBEROFPLANESATTACKING": 23}, {"TGTLOCATION": "PIRMASENS", "COUNTRY": "UK", "LONGITUDE": 7.6047455, "TGTCOUNTRY": "GERMANY", "MSNDATE": "10/29/1917", "LATITUDE": 49.2037161, "MDS": "AIRCO DH4 DAY BOMBER", "NUMBEROFPLANESATTACKING": 5}, {"TGTLOCATION": "SAAR VALLEY", "COUNTRY": "UK", "LONGITUDE": "", "TGTCOUNTRY": "GERMANY", "MSNDATE": "10/29/1917", "LATITUDE": "", "MDS": "FE2B", "NUMBEROFPLANESATTACKING": 3}, {"TGTLOCATION": "KAISERSLAUTERN", "COUNTRY": "UK", "LONGITUDE": 7.7690041, "TGTCOUNTRY": "GERMANY", "MSNDATE": "10/31/1917", "LATITUDE": 49.4446997, "MDS": "AIRCO DH4 DAY BOMBER", "NUMBEROFPLANESATTACKING": 33}, {"TGTLOCATION": "SAARBRUCKEN & ZWEIBRUCKEN", "COUNTRY": "UK", "LONGITUDE": 7, "TGTCOUNTRY": "GERMANY", "MSNDATE": "12/4/1917", "LATITUDE": 49.233333, "MDS": "AIRCO DH4 DAY BOMBER", "NUMBEROFPLANESATTACKING": 4}, {"TGTLOCATION": "SAARBRUCKEN", "COUNTRY": "UK", "LONGITUDE": 7, "TGTCOUNTRY": "GERMANY", "MSNDATE": "12/5/1917", "LATITUDE": 49.233333, "MDS": "AIRCO DH4 DAY BOMBER", "NUMBEROFPLANESATTACKING": 4}, {"TGTLOCATION": "PIRMASENS", "COUNTRY": "UK", "LONGITUDE": 7.6047455, "TGTCOUNTRY": "GERMANY", "MSNDATE": "12/10/1917", "LATITUDE": 49.2037161, "MDS": "AIRCO DH4 DAY BOMBER", "NUMBEROFPLANESATTACKING": 34}, {"TGTLOCATION": "MANNHEIM", "COUNTRY": "UK", "LONGITUDE": 8.464722, "TGTCOUNTRY": "GERMANY", "MSNDATE": "12/23/1917", "LATITUDE": 49.488333, "MDS": "AIRCO DH4 DAY BOMBER", "NUMBEROFPLANESATTACKING": 3}, {"TGTLOCATION": "METZ, MAZIERES, WOIPPY", "COUNTRY": "UK", "LONGITUDE": 6.175875, "TGTCOUNTRY": "FRANCE", "MSNDATE": "1/2/1918", "LATITUDE": 49.115461, "MDS": "FE2B", "NUMBEROFPLANESATTACKING": 31}, {"TGTLOCATION": "5 SITES W/I 20 NM OF METZ", "COUNTRY": "UK", "LONGITUDE": 6.176905, "TGTCOUNTRY": "FRANCE", "MSNDATE": "1/3/1918", "LATITUDE": 49.119666, "MDS": "FE2B", "NUMBEROFPLANESATTACKING": 35}, {"TGTLOCATION": "CONFLANS & MARS", "COUNTRY": "UK", "LONGITUDE": 5.848631, "TGTCOUNTRY": "FRANCE", "MSNDATE": "1/4/1918", "LATITUDE": 49.16768, "MDS": "FE2B", "NUMBEROFPLANESATTACKING": 33}, {"TGTLOCATION": "COURCELLES", "COUNTRY": "UK", "LONGITUDE": 6.308383, "TGTCOUNTRY": "FRANCE", "MSNDATE": "1/4/1918", "LATITUDE": 49.066651, "MDS": "HADLEY PAGE O/100", "NUMBEROFPLANESATTACKING": 2}, {"TGTLOCATION": "KARLSRUHE", "COUNTRY": "UK", "LONGITUDE": 8.4037563, "TGTCOUNTRY": "GERMANY", "MSNDATE": "1/13/1918", "LATITUDE": 49.0080848, "MDS": "AIRCO DH4 DAY BOMBER", "NUMBEROFPLANESATTACKING": 5}, {"TGTLOCATION": "THIONVILLE", "COUNTRY": "UK", "LONGITUDE": 6.167606, "TGTCOUNTRY": "FRANCE", "MSNDATE": "1/13/1918", "LATITUDE": 49.356794, "MDS": "FE2B", "NUMBEROFPLANESATTACKING": 33}, {"TGTLOCATION": "ORNY", "COUNTRY": "UK", "LONGITUDE": "", "TGTCOUNTRY": "SWITZERLAND", "MSNDATE": "1/15/1918", "LATITUDE": "", "MDS": "FE2B", "NUMBEROFPLANESATTACKING": 14}, {"TGTLOCATION": "THIONVILLE, BEMSDORF, FALKNBG", "COUNTRY": "UK", "LONGITUDE": 6.167606, "TGTCOUNTRY": "FRANCE", "MSNDATE": "1/20/1918", "LATITUDE": 49.356794, "MDS": "FE2B", "NUMBEROFPLANESATTACKING": 4}, {"TGTLOCATION": "ARNAVILLE", "COUNTRY": "UK", "LONGITUDE": 6.030617, "TGTCOUNTRY": "FRANCE", "MSNDATE": "1/20/1918", "LATITUDE": 49.011487, "MDS": "HADLEY PAGE O/100", "NUMBEROFPLANESATTACKING": 2}, {"TGTLOCATION": "TREVES, THIONVILLE, ETC", "COUNTRY": "UK", "LONGITUDE": 4.675828, "TGTCOUNTRY": "FRANCE", "MSNDATE": "1/23/1918", "LATITUDE": 45.538718, "MDS": "FE2B", "NUMBEROFPLANESATTACKING": 3}, {"TGTLOCATION": "MANNHEIM", "COUNTRY": "UK", "LONGITUDE": 8.464722, "TGTCOUNTRY": "GERMANY", "MSNDATE": "1/23/1918", "LATITUDE": 49.488333, "MDS": "HADLEY PAGE O/100", "NUMBEROFPLANESATTACKING": 14}, {"TGTLOCATION": "TREVES", "COUNTRY": "UK", "LONGITUDE": 4.675828, "TGTCOUNTRY": "FRANCE", "MSNDATE": "1/26/1918", "LATITUDE": 45.538718, "MDS": "AIRCO DH4 DAY BOMBER", "NUMBEROFPLANESATTACKING": 34}, {"TGTLOCATION": "COURCELLES", "COUNTRY": "UK", "LONGITUDE": 6.308383, "TGTCOUNTRY": "FRANCE", "MSNDATE": "2/8/1918", "LATITUDE": 49.066651, "MDS": "FE2B", "NUMBEROFPLANESATTACKING": 23}, {"TGTLOCATION": "OFFENBURG", "COUNTRY": "UK", "LONGITUDE": 7.916667, "TGTCOUNTRY": "GERMANY", "MSNDATE": "2/11/1918", "LATITUDE": 48.45, "MDS": "AIRCO DH4 DAY BOMBER", "NUMBEROFPLANESATTACKING": 5}, {"TGTLOCATION": "CONFLANS", "COUNTRY": "UK", "LONGITUDE": 5.872321129, "TGTCOUNTRY": "FRANCE", "MSNDATE": "2/15/1918", "LATITUDE": 49.1641817, "MDS": "FE2B", "NUMBEROFPLANESATTACKING": 31}, {"TGTLOCATION": "CONFLANS", "COUNTRY": "UK", "LONGITUDE": 5.872321129, "TGTCOUNTRY": "FRANCE", "MSNDATE": "2/15/1918", "LATITUDE": 49.1641817, "MDS": "HADLEY PAGE O/100", "NUMBEROFPLANESATTACKING": 1}, {"TGTLOCATION": "MANNHEIM", "COUNTRY": "UK", "LONGITUDE": 8.464722, "TGTCOUNTRY": "GERMANY", "MSNDATE": "2/17/1918", "LATITUDE": 49.488333, "MDS": "AIRCO DH4 DAY BOMBER", "NUMBEROFPLANESATTACKING": 1}, {"TGTLOCATION": "CONFLANS", "COUNTRY": "UK", "LONGITUDE": 5.872321129, "TGTCOUNTRY": "FRANCE", "MSNDATE": "2/17/1918", "LATITUDE": 49.1641817, "MDS": "FE2B", "NUMBEROFPLANESATTACKING": 33}, {"TGTLOCATION": "UNKNOWN", "COUNTRY": "UK", "LONGITUDE": 0, "TGTCOUNTRY": "GERMANY", "MSNDATE": "2/17/1918", "LATITUDE": 0, "MDS": "HADLEY PAGE O/100", "NUMBEROFPLANESATTACKING": 1}, {"TGTLOCATION": "THIONVILLE & TREVES", "COUNTRY": "UK", "LONGITUDE": 6.167606, "TGTCOUNTRY": "FRANCE", "MSNDATE": "2/18/1918", "LATITUDE": 49.356794, "MDS": "AIRCO DH4 DAY BOMBER", "NUMBEROFPLANESATTACKING": 36}, {"TGTLOCATION": "TREVES & THIONVILLE", "COUNTRY": "UK", "LONGITUDE": 4.675828, "TGTCOUNTRY": "FRANCE", "MSNDATE": "2/18/1918", "LATITUDE": 45.538718, "MDS": "FE2B", "NUMBEROFPLANESATTACKING": 3}, {"TGTLOCATION": "UNKNOWN", "COUNTRY": "UK", "LONGITUDE": 0, "TGTCOUNTRY": "GERMANY", "MSNDATE": "2/18/1918", "LATITUDE": 0, "MDS": "HADLEY PAGE O/100", "NUMBEROFPLANESATTACKING": 1}, {"TGTLOCATION": "TREVES", "COUNTRY": "UK", "LONGITUDE": 4.675828, "TGTCOUNTRY": "FRANCE", "MSNDATE": "2/19/1918", "LATITUDE": 45.538718, "MDS": "AIRCO DH4 DAY BOMBER", "NUMBEROFPLANESATTACKING": 4}, {"TGTLOCATION": "SAARBUCKEN", "COUNTRY": "UK", "LONGITUDE": 7, "TGTCOUNTRY": "GERMANY", "MSNDATE": "2/19/1918", "LATITUDE": 49.233333, "MDS": "FE2B", "NUMBEROFPLANESATTACKING": 1}, {"TGTLOCATION": "THIONVILLE", "COUNTRY": "UK", "LONGITUDE": 6.167606, "TGTCOUNTRY": "FRANCE", "MSNDATE": "2/19/1918", "LATITUDE": 49.356794, "MDS": "HADLEY PAGE O/100", "NUMBEROFPLANESATTACKING": 14}, {"TGTLOCATION": "PIRMASENS", "COUNTRY": "UK", "LONGITUDE": 7.6047455, "TGTCOUNTRY": "GERMANY", "MSNDATE": "2/20/1918", "LATITUDE": 49.2037161, "MDS": "AIRCO DH4 DAY BOMBER", "NUMBEROFPLANESATTACKING": 35}, {"TGTLOCATION": "FRESCATY", "COUNTRY": "UK", "LONGITUDE": 6.175875, "TGTCOUNTRY": "FRANCE", "MSNDATE": "2/26/1918", "LATITUDE": 49.115461, "MDS": "FE2B", "NUMBEROFPLANESATTACKING": 36}, {"TGTLOCATION": "TREVES", "COUNTRY": "UK", "LONGITUDE": 4.675828, "TGTCOUNTRY": "FRANCE", "MSNDATE": "2/26/1918", "LATITUDE": 45.538718, "MDS": "HADLEY PAGE O/100", "NUMBEROFPLANESATTACKING": 2}, {"TGTLOCATION": "FRESCATY", "COUNTRY": "UK", "LONGITUDE": 6.175875, "TGTCOUNTRY": "FRANCE", "MSNDATE": "3/6/1918", "LATITUDE": 49.115461, "MDS": "FE2B", "NUMBEROFPLANESATTACKING": 2}, {"TGTLOCATION": "MAINZ", "COUNTRY": "UK", "LONGITUDE": 8.271111, "TGTCOUNTRY": "GERMANY", "MSNDATE": "3/9/1918", "LATITUDE": 50, "MDS": "AIRCO DH4 DAY BOMBER", "NUMBEROFPLANESATTACKING": 4}, {"TGTLOCATION": "STUTTGART", "COUNTRY": "UK", "LONGITUDE": 9.183333, "TGTCOUNTRY": "GERMANY", "MSNDATE": "3/10/1918", "LATITUDE": 48.766667, "MDS": "AIRCO DH4 DAY BOMBER", "NUMBEROFPLANESATTACKING": 4}, {"TGTLOCATION": "COBLENZ", "COUNTRY": "UK", "LONGITUDE": 7.5996166, "TGTCOUNTRY": "GERMANY", "MSNDATE": "3/12/1918", "LATITUDE": 50.3566962, "MDS": "AIRCO DH4 DAY BOMBER", "NUMBEROFPLANESATTACKING": 36}, {"TGTLOCATION": "FREIBURQ", "COUNTRY": "UK", "LONGITUDE": 7.8537668, "TGTCOUNTRY": "GERMANY", "MSNDATE": "3/13/1918", "LATITUDE": 47.9971865, "MDS": "AIRCO DH4 DAY BOMBER", "NUMBEROFPLANESATTACKING": 35}, {"TGTLOCATION": "ZWEIBRUCKEN", "COUNTRY": "UK", "LONGITUDE": 7.366667, "TGTCOUNTRY": "GERMANY", "MSNDATE": "3/16/1918", "LATITUDE": 49.25, "MDS": "AIRCO DH4 DAY BOMBER", "NUMBEROFPLANESATTACKING": 34}, {"TGTLOCATION": "KAISERSLAUTERN", "COUNTRY": "UK", "LONGITUDE": 7.7690041, "TGTCOUNTRY": "GERMANY", "MSNDATE": "3/17/1918", "LATITUDE": 49.4446997, "MDS": "AIRCO DH4 DAY BOMBER", "NUMBEROFPLANESATTACKING": 36}, {"TGTLOCATION": "MANNHEIM", "COUNTRY": "UK", "LONGITUDE": 8.464722, "TGTCOUNTRY": "GERMANY", "MSNDATE": "3/18/1918", "LATITUDE": 49.488333, "MDS": "AIRCO DH4 DAY BOMBER", "NUMBEROFPLANESATTACKING": 36}, {"TGTLOCATION": "METZ-SABLON", "COUNTRY": "UK", "LONGITUDE": 6.175875, "TGTCOUNTRY": "FRANCE", "MSNDATE": "3/23/1918", "LATITUDE": 49.115461, "MDS": "FE2B", "NUMBEROFPLANESATTACKING": 5}, {"TGTLOCATION": "FRESCATY", "COUNTRY": "UK", "LONGITUDE": 6.175875, "TGTCOUNTRY": "FRANCE", "MSNDATE": "3/23/1918", "LATITUDE": 49.115461, "MDS": "FE2B", "NUMBEROFPLANESATTACKING": 4}, {"TGTLOCATION": "CONZ", "COUNTRY": "UK", "LONGITUDE": 6.583333, "TGTCOUNTRY": "GERMANY", "MSNDATE": "3/23/1918", "LATITUDE": 49.7, "MDS": "HADLEY PAGE O/100", "NUMBEROFPLANESATTACKING": 2}, {"TGTLOCATION": "LUDWIGSHAFEN", "COUNTRY": "UK", "LONGITUDE": 8.435278, "TGTCOUNTRY": "GERMANY", "MSNDATE": "3/24/1918", "LATITUDE": 49.481111, "MDS": "AIRCO DH4 DAY BOMBER", "NUMBEROFPLANESATTACKING": 5}, {"TGTLOCATION": "METZ & THIONVILLE", "COUNTRY": "UK", "LONGITUDE": 6.175875, "TGTCOUNTRY": "FRANCE", "MSNDATE": "3/24/1918", "LATITUDE": 49.115461, "MDS": "FE2B", "NUMBEROFPLANESATTACKING": 7}, {"TGTLOCATION": "COLOGNE, LUX, COURCELLES", "COUNTRY": "UK", "LONGITUDE": 6.9599115, "TGTCOUNTRY": "GERMANY", "MSNDATE": "3/24/1918", "LATITUDE": 50.9406645, "MDS": "HADLEY PAGE O/100", "NUMBEROFPLANESATTACKING": 23}, {"TGTLOCATION": "METZ", "COUNTRY": "UK", "LONGITUDE": 6.175875, "TGTCOUNTRY": "FRANCE", "MSNDATE": "3/27/1918", "LATITUDE": 49.115461, "MDS": "AIRCO DH4 DAY BOMBER", "NUMBEROFPLANESATTACKING": 4}, {"TGTLOCATION": "LUXEMBOURG", "COUNTRY": "UK", "LONGITUDE": 6.16666, "TGTCOUNTRY": "LUXEMBOURG", "MSNDATE": "3/28/1918", "LATITUDE": 49.75, "MDS": "AIRCO DH4 DAY BOMBER", "NUMBEROFPLANESATTACKING": 5}, {"TGTLOCATION": "LUXEMBOURG", "COUNTRY": "UK", "LONGITUDE": 6.16666, "TGTCOUNTRY": "LUXEMBOURG", "MSNDATE": "4/5/1918", "LATITUDE": 49.75, "MDS": "AIRCO DH4 DAY BOMBER", "NUMBEROFPLANESATTACKING": 4}, {"TGTLOCATION": "LUXEMBOURG", "COUNTRY": "UK", "LONGITUDE": 6.16666, "TGTCOUNTRY": "LUXEMBOURG", "MSNDATE": "4/11/1918", "LATITUDE": 49.75, "MDS": "AIRCO DH4 DAY BOMBER", "NUMBEROFPLANESATTACKING": 4}, {"TGTLOCATION": "METZ-SABLON", "COUNTRY": "UK", "LONGITUDE": 6.175875, "TGTCOUNTRY": "FRANCE", "MSNDATE": "4/12/1918", "LATITUDE": 49.115461, "MDS": "AIRCO DH4 DAY BOMBER", "NUMBEROFPLANESATTACKING": 4}, {"TGTLOCATION": "JUNIVILLE", "COUNTRY": "UK", "LONGITUDE": 4.38328, "TGTCOUNTRY": "GERMANY", "MSNDATE": "4/12/1918", "LATITUDE": 49.3968459, "MDS": "FE2B", "NUMBEROFPLANESATTACKING": 33}, {"TGTLOCATION": "AMAGNE-LUCQUY, JUNIVILLE", "COUNTRY": "UK", "LONGITUDE": 4.503726, "TGTCOUNTRY": "FRANCE", "MSNDATE": "4/12/1918", "LATITUDE": 49.517159, "MDS": "HADLEY PAGE O/100", "NUMBEROFPLANESATTACKING": 23}, {"TGTLOCATION": "JUNIVILLE", "COUNTRY": "UK", "LONGITUDE": 4.38328, "TGTCOUNTRY": "GERMANY", "MSNDATE": "4/19/1918", "LATITUDE": 49.3968459, "MDS": "FE2B", "NUMBEROFPLANESATTACKING": 33}, {"TGTLOCATION": "JUNIVILLE & BETHENVILLE", "COUNTRY": "UK", "LONGITUDE": 4.38328, "TGTCOUNTRY": "GERMANY", "MSNDATE": "4/19/1918", "LATITUDE": 49.3968459, "MDS": "HADLEY PAGE O/100", "NUMBEROFPLANESATTACKING": 23}, {"TGTLOCATION": "CHAULNES. ROYE, HAM", "COUNTRY": "UK", "LONGITUDE": 2.800635, "TGTCOUNTRY": "FRANCE", "MSNDATE": "4/20/1918", "LATITUDE": 49.816994, "MDS": "FE2B", "NUMBEROFPLANESATTACKING": 34}, {"TGTLOCATION": "CHAULNES", "COUNTRY": "UK", "LONGITUDE": 2.800635, "TGTCOUNTRY": "FRANCE", "MSNDATE": "4/20/1918", "LATITUDE": 49.816994, "MDS": "HADLEY PAGE O/100", "NUMBEROFPLANESATTACKING": 14}, {"TGTLOCATION": "AMAGNE-LUCQUY, JUNIVILLE", "COUNTRY": "UK", "LONGITUDE": 4.503726, "TGTCOUNTRY": "FRANCE", "MSNDATE": "4/21/1918", "LATITUDE": 49.517159, "MDS": "FE2B", "NUMBEROFPLANESATTACKING": 36}, {"TGTLOCATION": "THIONVILLE", "COUNTRY": "UK", "LONGITUDE": 6.167606, "TGTCOUNTRY": "FRANCE", "MSNDATE": "5/2/1918", "LATITUDE": 49.356794, "MDS": "AIRCO DH4 DAY BOMBER", "NUMBEROFPLANESATTACKING": 4}, {"TGTLOCATION": "AMAGNE-LUCQUY, JUNIVILLE", "COUNTRY": "UK", "LONGITUDE": 4.503726, "TGTCOUNTRY": "FRANCE", "MSNDATE": "5/2/1918", "LATITUDE": 49.517159, "MDS": "FE2B", "NUMBEROFPLANESATTACKING": 36}, {"TGTLOCATION": "THIONVILLE", "COUNTRY": "UK", "LONGITUDE": 6.167606, "TGTCOUNTRY": "FRANCE", "MSNDATE": "5/3/1918", "LATITUDE": 49.356794, "MDS": "AIRCO DH4 DAY BOMBER", "NUMBEROFPLANESATTACKING": 5}, {"TGTLOCATION": "JUNIVILLE, ASFELD, AMAGNE", "COUNTRY": "UK", "LONGITUDE": 4.38328, "TGTCOUNTRY": "GERMANY", "MSNDATE": "5/3/1918", "LATITUDE": 49.3968459, "MDS": "FE2B", "NUMBEROFPLANESATTACKING": 36}, {"TGTLOCATION": "THIONVILLE", "COUNTRY": "UK", "LONGITUDE": 6.167606, "TGTCOUNTRY": "FRANCE", "MSNDATE": "5/15/1918", "LATITUDE": 49.356794, "MDS": "AIRCO DH4 DAY BOMBER", "NUMBEROFPLANESATTACKING": 5}, {"TGTLOCATION": "SAARBRUCKEN", "COUNTRY": "UK", "LONGITUDE": 7, "TGTCOUNTRY": "GERMANY", "MSNDATE": "5/16/1918", "LATITUDE": 49.233333, "MDS": "AIRCO DH4 DAY BOMBER", "NUMBEROFPLANESATTACKING": 5}, {"TGTLOCATION": "METZ", "COUNTRY": "UK", "LONGITUDE": 6.175875, "TGTCOUNTRY": "FRANCE", "MSNDATE": "5/17/1918", "LATITUDE": 49.115461, "MDS": "AIRCO DH4 DAY BOMBER", "NUMBEROFPLANESATTACKING": 5}, {"TGTLOCATION": "METZ, METZ-SABLON, THIONVILLE", "COUNTRY": "UK", "LONGITUDE": 6.175875, "TGTCOUNTRY": "FRANCE", "MSNDATE": "5/17/1918", "LATITUDE": 49.115461, "MDS": "FE2B", "NUMBEROFPLANESATTACKING": 3}, {"TGTLOCATION": "THIONVILLE", "COUNTRY": "UK", "LONGITUDE": 6.167606, "TGTCOUNTRY": "FRANCE", "MSNDATE": "5/17/1918", "LATITUDE": 49.356794, "MDS": "HADLEY PAGE O/100", "NUMBEROFPLANESATTACKING": 2}, {"TGTLOCATION": "COLOGNE", "COUNTRY": "UK", "LONGITUDE": 6.9599115, "TGTCOUNTRY": "GERMANY", "MSNDATE": "5/18/1918", "LATITUDE": 50.9406645, "MDS": "AIRCO DH4 DAY BOMBER", "NUMBEROFPLANESATTACKING": 31}, {"TGTLOCATION": "LANDAU", "COUNTRY": "UK", "LONGITUDE": 8.11288, "TGTCOUNTRY": "GERMANY", "MSNDATE": "5/20/1918", "LATITUDE": 49.193507, "MDS": "AIRCO DH4 DAY BOMBER", "NUMBEROFPLANESATTACKING": 3}, {"TGTLOCATION": "THIONVILLE, METZ-SABLON", "COUNTRY": "UK", "LONGITUDE": 6.167606, "TGTCOUNTRY": "FRANCE", "MSNDATE": "5/20/1918", "LATITUDE": 49.356794, "MDS": "FE2B", "NUMBEROFPLANESATTACKING": 4}, {"TGTLOCATION": "THIONVILLE, METZ-SABLON, COBLENZ", "COUNTRY": "UK", "LONGITUDE": 6.167606, "TGTCOUNTRY": "FRANCE", "MSNDATE": "5/20/1918", "LATITUDE": 49.356794, "MDS": "HADLEY PAGE O/100", "NUMBEROFPLANESATTACKING": 33}, {"TGTLOCATION": "CHARLEROI, NAMUR, METZ-SABLON", "COUNTRY": "UK", "LONGITUDE": 4.4437222, "TGTCOUNTRY": "BELGIUM", "MSNDATE": "5/21/1918", "LATITUDE": 50.4124306, "MDS": "AIRCO DH4 DAY BOMBER", "NUMBEROFPLANESATTACKING": 4}, {"TGTLOCATION": "METZ-SABLON", "COUNTRY": "UK", "LONGITUDE": 6.175875, "TGTCOUNTRY": "FRANCE", "MSNDATE": "5/21/1918", "LATITUDE": 49.115461, "MDS": "AIRCO DH9 DAY BOMBER", "NUMBEROFPLANESATTACKING": 33}, {"TGTLOCATION": "SAARBRUCKEN. THIONVILLE", "COUNTRY": "UK", "LONGITUDE": 7, "TGTCOUNTRY": "GERMANY", "MSNDATE": "5/21/1918", "LATITUDE": 49.233333, "MDS": "FE2B", "NUMBEROFPLANESATTACKING": 8}, {"TGTLOCATION": "THIONVILLE, KARTHAUS", "COUNTRY": "UK", "LONGITUDE": 6.167606, "TGTCOUNTRY": "FRANCE", "MSNDATE": "5/21/1918", "LATITUDE": 49.356794, "MDS": "HADLEY PAGE O/100", "NUMBEROFPLANESATTACKING": 34}, {"TGTLOCATION": "KINKEMPOIS", "COUNTRY": "UK", "LONGITUDE": 5.60302, "TGTCOUNTRY": "BELGIUM", "MSNDATE": "5/22/1918", "LATITUDE": 50.63042, "MDS": "AIRCO DH4 DAY BOMBER", "NUMBEROFPLANESATTACKING": 4}, {"TGTLOCATION": "METZ-SABLON", "COUNTRY": "UK", "LONGITUDE": 6.175875, "TGTCOUNTRY": "FRANCE", "MSNDATE": "5/22/1918", "LATITUDE": 49.115461, "MDS": "AIRCO DH9 DAY BOMBER", "NUMBEROFPLANESATTACKING": 33}, {"TGTLOCATION": "KREUZWALD, SPITTEL", "COUNTRY": "UK", "LONGITUDE": 6.6962469, "TGTCOUNTRY": "GERMANY", "MSNDATE": "5/22/1918", "LATITUDE": 49.204987, "MDS": "FE2B", "NUMBEROFPLANESATTACKING": 5}, {"TGTLOCATION": "KREUZWALD, MANNHEIM", "COUNTRY": "UK", "LONGITUDE": 6.6962469, "TGTCOUNTRY": "GERMANY", "MSNDATE": "5/22/1918", "LATITUDE": 49.204987, "MDS": "HADLEY PAGE O/100", "NUMBEROFPLANESATTACKING": 31}, {"TGTLOCATION": "METZ-SABLON", "COUNTRY": "UK", "LONGITUDE": 6.175875, "TGTCOUNTRY": "FRANCE", "MSNDATE": "5/23/1918", "LATITUDE": 49.115461, "MDS": "AIRCO DH9 DAY BOMBER", "NUMBEROFPLANESATTACKING": 4}, {"TGTLOCATION": "HAGENDINGEN", "COUNTRY": "UK", "LONGITUDE": 5.6653948, "TGTCOUNTRY": "GERMANY", "MSNDATE": "5/24/1918", "LATITUDE": 51.9691868, "MDS": "AIRCO DH9 DAY BOMBER", "NUMBEROFPLANESATTACKING": 35}, {"TGTLOCATION": "BENSDORF", "COUNTRY": "UK", "LONGITUDE": 6.759462, "TGTCOUNTRY": "FRANCE", "MSNDATE": "5/27/1918", "LATITUDE": 48.905388, "MDS": "AIRCO DH9 DAY BOMBER", "NUMBEROFPLANESATTACKING": 3}, {"TGTLOCATION": "KREUZWALD. METZ-SABLON", "COUNTRY": "UK", "LONGITUDE": 6.6962469, "TGTCOUNTRY": "GERMANY", "MSNDATE": "5/27/1918", "LATITUDE": 49.204987, "MDS": "FE2B", "NUMBEROFPLANESATTACKING": 5}, {"TGTLOCATION": "MANNHEIM, KREUZ, LANDAU, COURCELLES", "COUNTRY": "UK", "LONGITUDE": 8.464722, "TGTCOUNTRY": "GERMANY", "MSNDATE": "5/27/1918", "LATITUDE": 49.488333, "MDS": "HADLEY PAGE O/100", "NUMBEROFPLANESATTACKING": 31}, {"TGTLOCATION": "BENSDORF", "COUNTRY": "UK", "LONGITUDE": 6.759462, "TGTCOUNTRY": "FRANCE", "MSNDATE": "5/28/1918", "LATITUDE": 48.905388, "MDS": "AIRCO DH9 DAY BOMBER", "NUMBEROFPLANESATTACKING": 3}, {"TGTLOCATION": "METZ-SABLONS", "COUNTRY": "UK", "LONGITUDE": 6.175875, "TGTCOUNTRY": "FRANCE", "MSNDATE": "5/28/1918", "LATITUDE": 49.115461, "MDS": "FE2B", "NUMBEROFPLANESATTACKING": 23}, {"TGTLOCATION": "THIONVILLE", "COUNTRY": "UK", "LONGITUDE": 6.167606, "TGTCOUNTRY": "FRANCE", "MSNDATE": "5/29/1918", "LATITUDE": 49.356794, "MDS": "AIRCO DH4 DAY BOMBER", "NUMBEROFPLANESATTACKING": 4}, {"TGTLOCATION": "METZ-SABLON", "COUNTRY": "UK", "LONGITUDE": 6.175875, "TGTCOUNTRY": "FRANCE", "MSNDATE": "5/29/1918", "LATITUDE": 49.115461, "MDS": "AIRCO DH9 DAY BOMBER", "NUMBEROFPLANESATTACKING": 33}, {"TGTLOCATION": "THIONVILLE", "COUNTRY": "UK", "LONGITUDE": 6.167606, "TGTCOUNTRY": "FRANCE", "MSNDATE": "5/30/1918", "LATITUDE": 49.356794, "MDS": "AIRCO DH4 DAY BOMBER", "NUMBEROFPLANESATTACKING": 5}, {"TGTLOCATION": "METZ-SABLON", "COUNTRY": "UK", "LONGITUDE": 6.175875, "TGTCOUNTRY": "FRANCE", "MSNDATE": "5/30/1918", "LATITUDE": 49.115461, "MDS": "AIRCO DH9 DAY BOMBER", "NUMBEROFPLANESATTACKING": 28}, {"TGTLOCATION": "METZ-SABLON", "COUNTRY": "UK", "LONGITUDE": 6.175875, "TGTCOUNTRY": "FRANCE", "MSNDATE": "5/30/1918", "LATITUDE": 49.115461, "MDS": "FE2B", "NUMBEROFPLANESATTACKING": 33}, {"TGTLOCATION": "", "COUNTRY": "UK", "LONGITUDE": "", "TGTCOUNTRY": "", "MSNDATE": "5/30/1918", "LATITUDE": "", "MDS": "HADLEY PAGE O/100", "NUMBEROFPLANESATTACKING": 34}, {"TGTLOCATION": "KARLSRUHE", "COUNTRY": "UK", "LONGITUDE": 8.4037563, "TGTCOUNTRY": "GERMANY", "MSNDATE": "5/31/1918", "LATITUDE": 49.0080848, "MDS": "AIRCO DH4 DAY BOMBER", "NUMBEROFPLANESATTACKING": 4}, {"TGTLOCATION": "METZ-SABLON", "COUNTRY": "UK", "LONGITUDE": 6.175875, "TGTCOUNTRY": "FRANCE", "MSNDATE": "5/31/1918", "LATITUDE": 49.115461, "MDS": "AIRCO DH9 DAY BOMBER", "NUMBEROFPLANESATTACKING": 4}, {"TGTLOCATION": "THIONVILLE & METZ", "COUNTRY": "UK", "LONGITUDE": 6.167606, "TGTCOUNTRY": "FRANCE", "MSNDATE": "5/31/1918", "LATITUDE": 49.356794, "MDS": "FE2B", "NUMBEROFPLANESATTACKING": 8}, {"TGTLOCATION": "", "COUNTRY": "UK", "LONGITUDE": 6.58261299, "TGTCOUNTRY": "", "MSNDATE": "5/31/1918", "LATITUDE": 49.7022517, "MDS": "HADLEY PAGE O/100", "NUMBEROFPLANESATTACKING": 28}, {"TGTLOCATION": "KARTHAUS", "COUNTRY": "UK", "LONGITUDE": 6.58261299, "TGTCOUNTRY": "ITALY", "MSNDATE": "6/1/1918", "LATITUDE": 49.7022517, "MDS": "AIRCO DH4 DAY BOMBER", "NUMBEROFPLANESATTACKING": 4}, {"TGTLOCATION": "METZ-SABLON", "COUNTRY": "UK", "LONGITUDE": 6.175875, "TGTCOUNTRY": "FRANCE", "MSNDATE": "6/1/1918", "LATITUDE": 49.115461, "MDS": "AIRCO DH9 DAY BOMBER", "NUMBEROFPLANESATTACKING": 33}, {"TGTLOCATION": "METZ-SABLON", "COUNTRY": "UK", "LONGITUDE": 6.175875, "TGTCOUNTRY": "FRANCE", "MSNDATE": "6/2/1918", "LATITUDE": 49.115461, "MDS": "AIRCO DH9 DAY BOMBER", "NUMBEROFPLANESATTACKING": 3}, {"TGTLOCATION": "LUXEMBOURG", "COUNTRY": "UK", "LONGITUDE": 6.16666, "TGTCOUNTRY": "LUXEMBOURG", "MSNDATE": "6/3/1918", "LATITUDE": 49.75, "MDS": "AIRCO DH4 DAY BOMBER", "NUMBEROFPLANESATTACKING": 34}, {"TGTLOCATION": "METZ", "COUNTRY": "UK", "LONGITUDE": 6.175875, "TGTCOUNTRY": "FRANCE", "MSNDATE": "6/3/1918", "LATITUDE": 49.115461, "MDS": "FE2B", "NUMBEROFPLANESATTACKING": 14}, {"TGTLOCATION": "TREVES & CONZ", "COUNTRY": "UK", "LONGITUDE": 4.675828, "TGTCOUNTRY": "FRANCE", "MSNDATE": "6/4/1918", "LATITUDE": 45.538718, "MDS": "AIRCO DH4 DAY BOMBER", "NUMBEROFPLANESATTACKING": 5}, {"TGTLOCATION": "METZ-SABLON", "COUNTRY": "UK", "LONGITUDE": 6.175875, "TGTCOUNTRY": "FRANCE", "MSNDATE": "6/4/1918", "LATITUDE": 49.115461, "MDS": "AIRCO DH9 DAY BOMBER", "NUMBEROFPLANESATTACKING": 3}, {"TGTLOCATION": "METZ-SABLON", "COUNTRY": "UK", "LONGITUDE": 6.175875, "TGTCOUNTRY": "FRANCE", "MSNDATE": "6/5/1918", "LATITUDE": 49.115461, "MDS": "FE2B", "NUMBEROFPLANESATTACKING": 34}, {"TGTLOCATION": "METZ & THIONVILIE", "COUNTRY": "UK", "LONGITUDE": 6.175875, "TGTCOUNTRY": "FRANCE", "MSNDATE": "6/5/1918", "LATITUDE": 49.115461, "MDS": "HADLEY PAGE O/100", "NUMBEROFPLANESATTACKING": 34}, {"TGTLOCATION": "COBLENZ", "COUNTRY": "UK", "LONGITUDE": 7.5996166, "TGTCOUNTRY": "GERMANY", "MSNDATE": "6/6/1918", "LATITUDE": 50.3566962, "MDS": "AIRCO DH4 DAY BOMBER", "NUMBEROFPLANESATTACKING": 3}, {"TGTLOCATION": "THIONVILLE", "COUNTRY": "UK", "LONGITUDE": 6.167606, "TGTCOUNTRY": "FRANCE", "MSNDATE": "6/6/1918", "LATITUDE": 49.356794, "MDS": "AIRCO DH9 DAY BOMBER", "NUMBEROFPLANESATTACKING": 31}, {"TGTLOCATION": "THIONVILLE, METZ-SABLON, MAIZIERES", "COUNTRY": "UK", "LONGITUDE": 6.167606, "TGTCOUNTRY": "FRANCE", "MSNDATE": "6/6/1918", "LATITUDE": 49.356794, "MDS": "FE2B", "NUMBEROFPLANESATTACKING": 3}, {"TGTLOCATION": "THIONVILLE, MOULIN-IES-METZ", "COUNTRY": "UK", "LONGITUDE": 6.167606, "TGTCOUNTRY": "FRANCE", "MSNDATE": "6/6/1918", "LATITUDE": 49.356794, "MDS": "HADLEY PAGE O/100", "NUMBEROFPLANESATTACKING": 33}, {"TGTLOCATION": "CONZ", "COUNTRY": "UK", "LONGITUDE": 6.583333, "TGTCOUNTRY": "GERMANY", "MSNDATE": "6/7/1918", "LATITUDE": 49.7, "MDS": "AIRCO DH4 DAY BOMBER", "NUMBEROFPLANESATTACKING": 36}, {"TGTLOCATION": "THIONVILLE", "COUNTRY": "UK", "LONGITUDE": 6.167606, "TGTCOUNTRY": "FRANCE", "MSNDATE": "6/7/1918", "LATITUDE": 49.356794, "MDS": "AIRCO DH9 DAY BOMBER", "NUMBEROFPLANESATTACKING": 28}, {"TGTLOCATION": "THIONVILLE", "COUNTRY": "UK", "LONGITUDE": 6.167606, "TGTCOUNTRY": "FRANCE", "MSNDATE": "6/8/1918", "LATITUDE": 49.356794, "MDS": "AIRCO DH4 DAY BOMBER", "NUMBEROFPLANESATTACKING": 4}, {"TGTLOCATION": "HAGENDINGEN", "COUNTRY": "UK", "LONGITUDE": 5.6653948, "TGTCOUNTRY": "GERMANY", "MSNDATE": "6/8/1918", "LATITUDE": 51.9691868, "MDS": "AIRCO DH9 DAY BOMBER", "NUMBEROFPLANESATTACKING": 36}, {"TGTLOCATION": "METZ-SABLON", "COUNTRY": "UK", "LONGITUDE": 6.175875, "TGTCOUNTRY": "FRANCE", "MSNDATE": "6/8/1918", "LATITUDE": 49.115461, "MDS": "AIRCO DH9 DAY BOMBER", "NUMBEROFPLANESATTACKING": 36}, {"TGTLOCATION": "DILLINGEN", "COUNTRY": "UK", "LONGITUDE": 10.4953485, "TGTCOUNTRY": "AUSTRIA", "MSNDATE": "6/9/1918", "LATITUDE": 48.5812458, "MDS": "AIRCO DH9 DAY BOMBER", "NUMBEROFPLANESATTACKING": 5}, {"TGTLOCATION": "HAGENDINGEN", "COUNTRY": "UK", "LONGITUDE": 5.6653948, "TGTCOUNTRY": "GERMANY", "MSNDATE": "6/9/1918", "LATITUDE": 51.9691868, "MDS": "AIRCO DH9 DAY BOMBER", "NUMBEROFPLANESATTACKING": 33}, {"TGTLOCATION": "DOMMARY-BARONCOURT", "COUNTRY": "USA", "LONGITUDE": 5.700448, "TGTCOUNTRY": "FRANCE", "MSNDATE": "6/12/1918", "LATITUDE": 49.284483, "MDS": "BREGUET 14 B2", "NUMBEROFPLANESATTACKING": 35}, {"TGTLOCATION": "METZ-SABLON", "COUNTRY": "UK", "LONGITUDE": 6.175875, "TGTCOUNTRY": "FRANCE", "MSNDATE": "6/12/1918", "LATITUDE": 49.115461, "MDS": "AIRCO DH9 DAY BOMBER", "NUMBEROFPLANESATTACKING": 33}, {"TGTLOCATION": "METZ-SABLON", "COUNTRY": "UK", "LONGITUDE": 6.175875, "TGTCOUNTRY": "FRANCE", "MSNDATE": "6/12/1918", "LATITUDE": 49.115461, "MDS": "AIRCO DH9 DAY BOMBER", "NUMBEROFPLANESATTACKING": 4}, {"TGTLOCATION": "TREVES", "COUNTRY": "UK", "LONGITUDE": 4.675828, "TGTCOUNTRY": "FRANCE", "MSNDATE": "6/13/1918", "LATITUDE": 45.538718, "MDS": "AIRCO DH4 DAY BOMBER", "NUMBEROFPLANESATTACKING": 5}, {"TGTLOCATION": "DILLINGEN", "COUNTRY": "UK", "LONGITUDE": 10.4953485, "TGTCOUNTRY": "AUSTRIA", "MSNDATE": "6/13/1918", "LATITUDE": 48.5812458, "MDS": "AIRCO DH9 DAY BOMBER", "NUMBEROFPLANESATTACKING": 36}, {"TGTLOCATION": "HAGENDINGEN", "COUNTRY": "UK", "LONGITUDE": 5.6653948, "TGTCOUNTRY": "GERMANY", "MSNDATE": "6/13/1918", "LATITUDE": 51.9691868, "MDS": "AIRCO DH9 DAY BOMBER", "NUMBEROFPLANESATTACKING": 35}, {"TGTLOCATION": "CONFLANS", "COUNTRY": "USA", "LONGITUDE": 5.875534, "TGTCOUNTRY": "FRANCE", "MSNDATE": "6/14/1918", "LATITUDE": 49.164419, "MDS": "BREGUET 14 B2", "NUMBEROFPLANESATTACKING": 31}, {"TGTLOCATION": "CONFLANS", "COUNTRY": "USA", "LONGITUDE": 5.879407, "TGTCOUNTRY": "FRANCE", "MSNDATE": "6/18/1918", "LATITUDE": 49.165617, "MDS": "BREGUET 14 B2", "NUMBEROFPLANESATTACKING": 31}, {"TGTLOCATION": "METZ-SABLON", "COUNTRY": "UK", "LONGITUDE": 6.175875, "TGTCOUNTRY": "FRANCE", "MSNDATE": "6/23/1918", "LATITUDE": 49.115461, "MDS": "AIRCO DH4 DAY BOMBER", "NUMBEROFPLANESATTACKING": 4}, {"TGTLOCATION": "METZ-SABLON", "COUNTRY": "UK", "LONGITUDE": 6.175875, "TGTCOUNTRY": "FRANCE", "MSNDATE": "6/23/1918", "LATITUDE": 49.115461, "MDS": "AIRCO DH9 DAY BOMBER", "NUMBEROFPLANESATTACKING": 5}, {"TGTLOCATION": "METZ-SABLON", "COUNTRY": "UK", "LONGITUDE": 6.175875, "TGTCOUNTRY": "FRANCE", "MSNDATE": "6/23/1918", "LATITUDE": 49.115461, "MDS": "AIRCO DH9 DAY BOMBER", "NUMBEROFPLANESATTACKING": 3}, {"TGTLOCATION": "BOULAY. EHRANG", "COUNTRY": "UK", "LONGITUDE": 2.202988, "TGTCOUNTRY": "FRANCE", "MSNDATE": "6/23/1918", "LATITUDE": 48.152448, "MDS": "HADLEY PAGE O/400", "NUMBEROFPLANESATTACKING": 31}, {"TGTLOCATION": "METZ-SABLON & DILLINQEN", "COUNTRY": "UK", "LONGITUDE": 6.175875, "TGTCOUNTRY": "FRANCE", "MSNDATE": "6/24/1918", "LATITUDE": 49.115461, "MDS": "AIRCO DH4 DAY BOMBER", "NUMBEROFPLANESATTACKING": 3}, {"TGTLOCATION": "DILLINGEN & SAARBRUCKEN", "COUNTRY": "UK", "LONGITUDE": 10.4953485, "TGTCOUNTRY": "AUSTRIA", "MSNDATE": "6/24/1918", "LATITUDE": 48.5812458, "MDS": "AIRCO DH9 DAY BOMBER", "NUMBEROFPLANESATTACKING": 3}, {"TGTLOCATION": "SAARBRUCKEN", "COUNTRY": "UK", "LONGITUDE": 7, "TGTCOUNTRY": "GERMANY", "MSNDATE": "6/24/1918", "LATITUDE": 49.233333, "MDS": "AIRCO DH9 DAY BOMBER", "NUMBEROFPLANESATTACKING": 36}, {"TGTLOCATION": "CONFLANS", "COUNTRY": "USA", "LONGITUDE": 5.887354, "TGTCOUNTRY": "FRANCE", "MSNDATE": "6/25/1918", "LATITUDE": 49.159152, "MDS": "BREGUET 14 B2", "NUMBEROFPLANESATTACKING": 28}, {"TGTLOCATION": "KARLSRUHE", "COUNTRY": "UK", "LONGITUDE": 8.4037563, "TGTCOUNTRY": "GERMANY", "MSNDATE": "6/25/1918", "LATITUDE": 49.0080848, "MDS": "AIRCO DH9 DAY BOMBER", "NUMBEROFPLANESATTACKING": 34}, {"TGTLOCATION": "BOULAY", "COUNTRY": "UK", "LONGITUDE": 2.202988, "TGTCOUNTRY": "FRANCE", "MSNDATE": "6/25/1918", "LATITUDE": 48.152448, "MDS": "FE2B", "NUMBEROFPLANESATTACKING": 8}, {"TGTLOCATION": "METZ-SABLON", "COUNTRY": "UK", "LONGITUDE": 6.175875, "TGTCOUNTRY": "FRANCE", "MSNDATE": "6/25/1918", "LATITUDE": 49.115461, "MDS": "HADLEY PAGE O/100", "NUMBEROFPLANESATTACKING": 31}, {"TGTLOCATION": "KARISRUHE", "COUNTRY": "UK", "LONGITUDE": 8.4037563, "TGTCOUNTRY": "GERMANY", "MSNDATE": "6/26/1918", "LATITUDE": 49.0080848, "MDS": "AIRCO DH4 DAY BOMBER", "NUMBEROFPLANESATTACKING": 3}, {"TGTLOCATION": "KARLSRUHE", "COUNTRY": "UK", "LONGITUDE": 8.4037563, "TGTCOUNTRY": "GERMANY", "MSNDATE": "6/26/1918", "LATITUDE": 49.0080848, "MDS": "AIRCO DH9 DAY BOMBER", "NUMBEROFPLANESATTACKING": 33}, {"TGTLOCATION": "KARLSRUHE", "COUNTRY": "UK", "LONGITUDE": 8.4037563, "TGTCOUNTRY": "GERMANY", "MSNDATE": "6/26/1918", "LATITUDE": 49.0080848, "MDS": "AIRCO DH9 DAY BOMBER", "NUMBEROFPLANESATTACKING": 23}, {"TGTLOCATION": "BOULAY", "COUNTRY": "UK", "LONGITUDE": 2.202988, "TGTCOUNTRY": "FRANCE", "MSNDATE": "6/26/1918", "LATITUDE": 48.152448, "MDS": "FE2B", "NUMBEROFPLANESATTACKING": 33}, {"TGTLOCATION": "BOULAY, MANNHEIM, SAARBRUCKEN", "COUNTRY": "UK", "LONGITUDE": 2.202988, "TGTCOUNTRY": "FRANCE", "MSNDATE": "6/26/1918", "LATITUDE": 48.152448, "MDS": "HADLEY PAGE O/400", "NUMBEROFPLANESATTACKING": 28}, {"TGTLOCATION": "THIONVILLE", "COUNTRY": "UK", "LONGITUDE": 6.167606, "TGTCOUNTRY": "FRANCE", "MSNDATE": "6/27/1918", "LATITUDE": 49.356794, "MDS": "AIRCO DH4 DAY BOMBER", "NUMBEROFPLANESATTACKING": 4}, {"TGTLOCATION": "THIONVILLE", "COUNTRY": "UK", "LONGITUDE": 6.167606, "TGTCOUNTRY": "FRANCE", "MSNDATE": "6/27/1918", "LATITUDE": 49.356794, "MDS": "AIRCO DH9 DAY BOMBER", "NUMBEROFPLANESATTACKING": 4}, {"TGTLOCATION": "THIONVILLE", "COUNTRY": "UK", "LONGITUDE": 6.167606, "TGTCOUNTRY": "FRANCE", "MSNDATE": "6/27/1918", "LATITUDE": 49.356794, "MDS": "AIRCO DH9 DAY BOMBER", "NUMBEROFPLANESATTACKING": 31}, {"TGTLOCATION": "BOULAY, METZ-SABLON, CONTILLON", "COUNTRY": "UK", "LONGITUDE": 2.202988, "TGTCOUNTRY": "FRANCE", "MSNDATE": "6/27/1918", "LATITUDE": 48.152448, "MDS": "FE2B", "NUMBEROFPLANESATTACKING": 31}, {"TGTLOCATION": "FRESCATY", "COUNTRY": "UK", "LONGITUDE": 6.175875, "TGTCOUNTRY": "FRANCE", "MSNDATE": "6/28/1918", "LATITUDE": 49.115461, "MDS": "AIRCO DH9 DAY BOMBER", "NUMBEROFPLANESATTACKING": 36}, {"TGTLOCATION": "MANNHEIM", "COUNTRY": "UK", "LONGITUDE": 8.464722, "TGTCOUNTRY": "GERMANY", "MSNDATE": "6/29/1918", "LATITUDE": 49.488333, "MDS": "AIRCO DH4 DAY BOMBER", "NUMBEROFPLANESATTACKING": 3}, {"TGTLOCATION": "FRESCATY, BOULAY", "COUNTRY": "UK", "LONGITUDE": 6.175875, "TGTCOUNTRY": "FRANCE", "MSNDATE": "6/29/1918", "LATITUDE": 49.115461, "MDS": "FE2B", "NUMBEROFPLANESATTACKING": 5}, {"TGTLOCATION": "MANNHEIM, THIONVILLE, METZ-SABLON", "COUNTRY": "UK", "LONGITUDE": 8.464722, "TGTCOUNTRY": "GERMANY", "MSNDATE": "6/29/1918", "LATITUDE": 49.488333, "MDS": "HADLEY PAGE O/100", "NUMBEROFPLANESATTACKING": 33}, {"TGTLOCATION": "HAGENAU", "COUNTRY": "UK", "LONGITUDE": 7.79125, "TGTCOUNTRY": "GERMANY", "MSNDATE": "6/30/1918", "LATITUDE": 48.813288, "MDS": "AIRCO DH4 DAY BOMBER", "NUMBEROFPLANESATTACKING": 35}, {"TGTLOCATION": "HAGENAU", "COUNTRY": "UK", "LONGITUDE": 7.79125, "TGTCOUNTRY": "GERMANY", "MSNDATE": "6/30/1918", "LATITUDE": 48.813288, "MDS": "AIRCO DH9 DAY BOMBER", "NUMBEROFPLANESATTACKING": 33}, {"TGTLOCATION": "LANDAU", "COUNTRY": "UK", "LONGITUDE": 8.11288, "TGTCOUNTRY": "GERMANY", "MSNDATE": "6/30/1918", "LATITUDE": 49.193507, "MDS": "AIRCO DH9 DAY BOMBER", "NUMBEROFPLANESATTACKING": 36}, {"TGTLOCATION": "BOULAY, THIONVILLE, REMILLY", "COUNTRY": "UK", "LONGITUDE": 2.202988, "TGTCOUNTRY": "FRANCE", "MSNDATE": "6/30/1918", "LATITUDE": 48.152448, "MDS": "FE2B", "NUMBEROFPLANESATTACKING": 7}, {"TGTLOCATION": "MANNHEIM", "COUNTRY": "UK", "LONGITUDE": 8.464722, "TGTCOUNTRY": "GERMANY", "MSNDATE": "6/30/1918", "LATITUDE": 49.488333, "MDS": "HADLEY PAGE O/100", "NUMBEROFPLANESATTACKING": 34}, {"TGTLOCATION": "KARTHAUS, TREVES", "COUNTRY": "UK", "LONGITUDE": 6.58261299, "TGTCOUNTRY": "ITALY", "MSNDATE": "7/1/1918", "LATITUDE": 49.7022517, "MDS": "AIRCO DH4 DAY BOMBER", "NUMBEROFPLANESATTACKING": 4}, {"TGTLOCATION": "KARTHAUS", "COUNTRY": "UK", "LONGITUDE": 6.58261299, "TGTCOUNTRY": "ITALY", "MSNDATE": "7/1/1918", "LATITUDE": 49.7022517, "MDS": "AIRCO DH9 DAY BOMBER", "NUMBEROFPLANESATTACKING": 33}, {"TGTLOCATION": "METZ-SABLON", "COUNTRY": "UK", "LONGITUDE": 6.175875, "TGTCOUNTRY": "FRANCE", "MSNDATE": "7/1/1918", "LATITUDE": 49.115461, "MDS": "AIRCO DH9 DAY BOMBER", "NUMBEROFPLANESATTACKING": 28}, {"TGTLOCATION": "BOULAY AND FALKENBURG", "COUNTRY": "UK", "LONGITUDE": 2.202988, "TGTCOUNTRY": "FRANCE", "MSNDATE": "7/1/1918", "LATITUDE": 48.152448, "MDS": "FE2B", "NUMBEROFPLANESATTACKING": 7}, {"TGTLOCATION": "MANNHEIM & THIONVILLE", "COUNTRY": "UK", "LONGITUDE": 8.464722, "TGTCOUNTRY": "GERMANY", "MSNDATE": "7/1/1918", "LATITUDE": 49.488333, "MDS": "HADLEY PAGE O/100", "NUMBEROFPLANESATTACKING": 31}, {"TGTLOCATION": "COBLENZ", "COUNTRY": "UK", "LONGITUDE": 7.5996166, "TGTCOUNTRY": "GERMANY", "MSNDATE": "7/2/1918", "LATITUDE": 50.3566962, "MDS": "AIRCO DH4 DAY BOMBER", "NUMBEROFPLANESATTACKING": 36}, {"TGTLOCATION": "TREVES", "COUNTRY": "UK", "LONGITUDE": 4.675828, "TGTCOUNTRY": "FRANCE", "MSNDATE": "7/2/1918", "LATITUDE": 45.538718, "MDS": "AIRCO DH9 DAY BOMBER", "NUMBEROFPLANESATTACKING": 33}, {"TGTLOCATION": "BUHL", "COUNTRY": "UK", "LONGITUDE": 8.007115, "TGTCOUNTRY": "FRANCE", "MSNDATE": "7/3/1918", "LATITUDE": 48.915636, "MDS": "AIRCO DH9 DAY BOMBER", "NUMBEROFPLANESATTACKING": 28}, {"TGTLOCATION": "COBLENZ", "COUNTRY": "UK", "LONGITUDE": 7.5996166, "TGTCOUNTRY": "GERMANY", "MSNDATE": "7/5/1918", "LATITUDE": 50.3566962, "MDS": "AIRCO DH4 DAY BOMBER", "NUMBEROFPLANESATTACKING": 4}, {"TGTLOCATION": "SAARBRUCKEN", "COUNTRY": "UK", "LONGITUDE": 7, "TGTCOUNTRY": "GERMANY", "MSNDATE": "7/5/1918", "LATITUDE": 49.233333, "MDS": "AIRCO DH9 DAY BOMBER", "NUMBEROFPLANESATTACKING": 33}, {"TGTLOCATION": "ARRAS", "COUNTRY": "UK", "LONGITUDE": 2.777535, "TGTCOUNTRY": "FRANCE", "MSNDATE": "7/5/1918", "LATITUDE": 50.291002, "MDS": "AIRCO DH9 DAY BOMBER", "NUMBEROFPLANESATTACKING": 28}, {"TGTLOCATION": "METZ-SABLON", "COUNTRY": "UK", "LONGITUDE": 6.175875, "TGTCOUNTRY": "FRANCE", "MSNDATE": "7/6/1918", "LATITUDE": 49.115461, "MDS": "AIRCO DH4 DAY BOMBER", "NUMBEROFPLANESATTACKING": 5}, {"TGTLOCATION": "METZ-SABLON", "COUNTRY": "UK", "LONGITUDE": 6.175875, "TGTCOUNTRY": "FRANCE", "MSNDATE": "7/6/1918", "LATITUDE": 49.115461, "MDS": "AIRCO DH9 DAY BOMBER", "NUMBEROFPLANESATTACKING": 33}, {"TGTLOCATION": "METZ-SABLON", "COUNTRY": "UK", "LONGITUDE": 6.175875, "TGTCOUNTRY": "FRANCE", "MSNDATE": "7/6/1918", "LATITUDE": 49.115461, "MDS": "AIRCO DH9 DAY BOMBER", "NUMBEROFPLANESATTACKING": 33}, {"TGTLOCATION": "SAARBURG & MAME CANAL", "COUNTRY": "UK", "LONGITUDE": 9.983333, "TGTCOUNTRY": "GERMANY", "MSNDATE": "7/6/1918", "LATITUDE": 49.133333, "MDS": "FE2B", "NUMBEROFPLANESATTACKING": 36}, {"TGTLOCATION": "METZ-SABLON", "COUNTRY": "UK", "LONGITUDE": 6.175875, "TGTCOUNTRY": "FRANCE", "MSNDATE": "7/6/1918", "LATITUDE": 49.115461, "MDS": "HADLEY PAGE O/100", "NUMBEROFPLANESATTACKING": 23}, {"TGTLOCATION": "KAISERSLAUTERN", "COUNTRY": "UK", "LONGITUDE": 7.7690041, "TGTCOUNTRY": "GERMANY", "MSNDATE": "7/7/1918", "LATITUDE": 49.4446997, "MDS": "AIRCO DH9 DAY BOMBER", "NUMBEROFPLANESATTACKING": 33}, {"TGTLOCATION": "KAISERSLAUTERN", "COUNTRY": "UK", "LONGITUDE": 7.7690041, "TGTCOUNTRY": "GERMANY", "MSNDATE": "7/7/1918", "LATITUDE": 49.4446997, "MDS": "AIRCO DH9 DAY BOMBER", "NUMBEROFPLANESATTACKING": 31}, {"TGTLOCATION": "S. LUXEMBOURG", "COUNTRY": "UK", "LONGITUDE": "", "TGTCOUNTRY": "LUXEMBOURG", "MSNDATE": "7/8/1918", "LATITUDE": "", "MDS": "AIRCO DH4 DAY BOMBER", "NUMBEROFPLANESATTACKING": 5}, {"TGTLOCATION": "BUHL", "COUNTRY": "UK", "LONGITUDE": 8.007115, "TGTCOUNTRY": "FRANCE", "MSNDATE": "7/8/1918", "LATITUDE": 48.915636, "MDS": "AIRCO DH9 DAY BOMBER", "NUMBEROFPLANESATTACKING": 33}, {"TGTLOCATION": "BUHL", "COUNTRY": "UK", "LONGITUDE": 8.007115, "TGTCOUNTRY": "FRANCE", "MSNDATE": "7/8/1918", "LATITUDE": 48.915636, "MDS": "AIRCO DH9 DAY BOMBER", "NUMBEROFPLANESATTACKING": 28}, {"TGTLOCATION": "BUHL", "COUNTRY": "UK", "LONGITUDE": 8.007115, "TGTCOUNTRY": "FRANCE", "MSNDATE": "7/8/1918", "LATITUDE": 48.915636, "MDS": "AIRCO DH9 DAY BOMBER", "NUMBEROFPLANESATTACKING": 28}, {"TGTLOCATION": "BOULAY, VALLIERES, FALKNBRG", "COUNTRY": "UK", "LONGITUDE": 2.202988, "TGTCOUNTRY": "FRANCE", "MSNDATE": "7/8/1918", "LATITUDE": 48.152448, "MDS": "FE2B", "NUMBEROFPLANESATTACKING": 4}, {"TGTLOCATION": "FREISDORF & BOULAY", "COUNTRY": "UK", "LONGITUDE": 8.8519121, "TGTCOUNTRY": "GERMANY", "MSNDATE": "7/8/1918", "LATITUDE": 52.823785, "MDS": "HADLEY PAGE O/400", "NUMBEROFPLANESATTACKING": 23}, {"TGTLOCATION": "CONFLANS", "COUNTRY": "USA", "LONGITUDE": 5.887354, "TGTCOUNTRY": "FRANCE", "MSNDATE": "7/10/1918", "LATITUDE": 49.159152, "MDS": "BREGUET 14 B2", "NUMBEROFPLANESATTACKING": 33}, {"TGTLOCATION": "OFFENBURG", "COUNTRY": "UK", "LONGITUDE": 7.916667, "TGTCOUNTRY": "GERMANY", "MSNDATE": "7/11/1918", "LATITUDE": 48.45, "MDS": "AIRCO DH4 DAY BOMBER", "NUMBEROFPLANESATTACKING": 5}, {"TGTLOCATION": "BOULAY, ST AUOLD", "COUNTRY": "UK", "LONGITUDE": 2.202988, "TGTCOUNTRY": "FRANCE", "MSNDATE": "7/11/1918", "LATITUDE": 48.152448, "MDS": "FE2B", "NUMBEROFPLANESATTACKING": 3}, {"TGTLOCATION": "FREISDORF & BOULAY", "COUNTRY": "UK", "LONGITUDE": 8.8519121, "TGTCOUNTRY": "GERMANY", "MSNDATE": "7/11/1918", "LATITUDE": 52.823785, "MDS": "HADLEY PAGE O/100", "NUMBEROFPLANESATTACKING": 28}, {"TGTLOCATION": "SAARBRUCKEN", "COUNTRY": "UK", "LONGITUDE": 7, "TGTCOUNTRY": "GERMANY", "MSNDATE": "7/12/1918", "LATITUDE": 49.233333, "MDS": "AIRCO DH4 DAY BOMBER", "NUMBEROFPLANESATTACKING": 3}, {"TGTLOCATION": "OFFENBURG", "COUNTRY": "UK", "LONGITUDE": 7.916667, "TGTCOUNTRY": "GERMANY", "MSNDATE": "7/15/1918", "LATITUDE": 48.45, "MDS": "AIRCO DH4 DAY BOMBER", "NUMBEROFPLANESATTACKING": 4}, {"TGTLOCATION": "BUHL", "COUNTRY": "UK", "LONGITUDE": 8.007115, "TGTCOUNTRY": "FRANCE", "MSNDATE": "7/15/1918", "LATITUDE": 48.915636, "MDS": "AIRCO DH9 DAY BOMBER", "NUMBEROFPLANESATTACKING": 34}, {"TGTLOCATION": "THIONVILLE", "COUNTRY": "UK", "LONGITUDE": 6.167606, "TGTCOUNTRY": "FRANCE", "MSNDATE": "7/16/1918", "LATITUDE": 49.356794, "MDS": "AIRCO DH4 DAY BOMBER", "NUMBEROFPLANESATTACKING": 33}, {"TGTLOCATION": "THIONVILLE", "COUNTRY": "UK", "LONGITUDE": 6.167606, "TGTCOUNTRY": "FRANCE", "MSNDATE": "7/16/1918", "LATITUDE": 49.356794, "MDS": "AIRCO DH9 DAY BOMBER", "NUMBEROFPLANESATTACKING": 5}, {"TGTLOCATION": "HAGENDINGEN & HAM", "COUNTRY": "UK", "LONGITUDE": 5.6653948, "TGTCOUNTRY": "GERMANY", "MSNDATE": "7/16/1918", "LATITUDE": 51.9691868, "MDS": "FE2B", "NUMBEROFPLANESATTACKING": 5}, {"TGTLOCATION": "SAARBRUCKEN & DIEUZE", "COUNTRY": "UK", "LONGITUDE": 7, "TGTCOUNTRY": "GERMANY", "MSNDATE": "7/16/1918", "LATITUDE": 49.233333, "MDS": "HADLEY PAGE O/100", "NUMBEROFPLANESATTACKING": 23}, {"TGTLOCATION": "THIONVILLE", "COUNTRY": "UK", "LONGITUDE": 6.167606, "TGTCOUNTRY": "FRANCE", "MSNDATE": "7/17/1918", "LATITUDE": 49.356794, "MDS": "AIRCO DH4 DAY BOMBER", "NUMBEROFPLANESATTACKING": 4}, {"TGTLOCATION": "THIONVILLE", "COUNTRY": "UK", "LONGITUDE": 6.167606, "TGTCOUNTRY": "FRANCE", "MSNDATE": "7/17/1918", "LATITUDE": 49.356794, "MDS": "AIRCO DH9 DAY BOMBER", "NUMBEROFPLANESATTACKING": 33}, {"TGTLOCATION": "BOULAY, FALKENBURG", "COUNTRY": "UK", "LONGITUDE": 2.202988, "TGTCOUNTRY": "FRANCE", "MSNDATE": "7/18/1918", "LATITUDE": 48.152448, "MDS": "FE2B", "NUMBEROFPLANESATTACKING": 4}, {"TGTLOCATION": "SAARBRUCKEN, MANNHEIM", "COUNTRY": "UK", "LONGITUDE": 7, "TGTCOUNTRY": "GERMANY", "MSNDATE": "7/18/1918", "LATITUDE": 49.233333, "MDS": "HADLEY PAGE O/100", "NUMBEROFPLANESATTACKING": 33}, {"TGTLOCATION": "OBERNDORF", "COUNTRY": "UK", "LONGITUDE": 12.083333, "TGTCOUNTRY": "GERMANY", "MSNDATE": "7/19/1918", "LATITUDE": 48.033333, "MDS": "AIRCO DH4 DAY BOMBER", "NUMBEROFPLANESATTACKING": 35}, {"TGTLOCATION": "BOULAY, FREISDORF, SAAR", "COUNTRY": "UK", "LONGITUDE": 2.202988, "TGTCOUNTRY": "FRANCE", "MSNDATE": "7/19/1918", "LATITUDE": 48.152448, "MDS": "FE2B", "NUMBEROFPLANESATTACKING": 7}, {"TGTLOCATION": "MANNHEIM & SAARBRUCKEN", "COUNTRY": "UK", "LONGITUDE": 8.464722, "TGTCOUNTRY": "GERMANY", "MSNDATE": "7/19/1918", "LATITUDE": 49.488333, "MDS": "HADLEY PAGE O/100", "NUMBEROFPLANESATTACKING": 31}, {"TGTLOCATION": "OBERNDORF", "COUNTRY": "UK", "LONGITUDE": 12.083333, "TGTCOUNTRY": "GERMANY", "MSNDATE": "7/20/1918", "LATITUDE": 48.033333, "MDS": "AIRCO DH4 DAY BOMBER", "NUMBEROFPLANESATTACKING": 4}, {"TGTLOCATION": "OFFENBURG", "COUNTRY": "UK", "LONGITUDE": 7.916667, "TGTCOUNTRY": "GERMANY", "MSNDATE": "7/20/1918", "LATITUDE": 48.45, "MDS": "AIRCO DH9 DAY BOMBER", "NUMBEROFPLANESATTACKING": 3}, {"TGTLOCATION": "BOULAY, FREISDORF", "COUNTRY": "UK", "LONGITUDE": 2.202988, "TGTCOUNTRY": "FRANCE", "MSNDATE": "7/21/1918", "LATITUDE": 48.152448, "MDS": "FE2B", "NUMBEROFPLANESATTACKING": 11}, {"TGTLOCATION": "MANNHEIM, ZWEIBRKN", "COUNTRY": "UK", "LONGITUDE": 8.464722, "TGTCOUNTRY": "GERMANY", "MSNDATE": "7/21/1918", "LATITUDE": 49.488333, "MDS": "HADLEY PAGE O/100", "NUMBEROFPLANESATTACKING": 28}, {"TGTLOCATION": "ROTTWEIL", "COUNTRY": "UK", "LONGITUDE": 8.6279301, "TGTCOUNTRY": "GERMANY", "MSNDATE": "7/22/1918", "LATITUDE": 48.1666854, "MDS": "AIRCO DH4 DAY BOMBER", "NUMBEROFPLANESATTACKING": 3}, {"TGTLOCATION": "OFTENBURG", "COUNTRY": "UK", "LONGITUDE": 7.916667, "TGTCOUNTRY": "GERMANY", "MSNDATE": "7/22/1918", "LATITUDE": 48.45, "MDS": "AIRCO DH9 DAY BOMBER", "NUMBEROFPLANESATTACKING": 5}, {"TGTLOCATION": "BOULAY AND LESSE", "COUNTRY": "UK", "LONGITUDE": 2.202988, "TGTCOUNTRY": "FRANCE", "MSNDATE": "7/22/1918", "LATITUDE": 48.152448, "MDS": "FE2B", "NUMBEROFPLANESATTACKING": 8}, {"TGTLOCATION": "VAHL EBERSING, MORHANGE", "COUNTRY": "UK", "LONGITUDE": 6.754021, "TGTCOUNTRY": "FRANCE", "MSNDATE": "7/22/1918", "LATITUDE": 49.049131, "MDS": "HADLEY PAGE O/100", "NUMBEROFPLANESATTACKING": 14}, {"TGTLOCATION": "BOULAY, FREISDORF, MORHANGE", "COUNTRY": "UK", "LONGITUDE": 2.202988, "TGTCOUNTRY": "FRANCE", "MSNDATE": "7/25/1918", "LATITUDE": 48.152448, "MDS": "FE2B", "NUMBEROFPLANESATTACKING": 11}, {"TGTLOCATION": "OFFENBURG, BUHL", "COUNTRY": "UK", "LONGITUDE": 7.916667, "TGTCOUNTRY": "GERMANY", "MSNDATE": "7/25/1918", "LATITUDE": 48.45, "MDS": "HADLEY PAGE O/100", "NUMBEROFPLANESATTACKING": 35}, {"TGTLOCATION": "BOULAY, MORHANGE, REMILLY", "COUNTRY": "UK", "LONGITUDE": 2.202988, "TGTCOUNTRY": "FRANCE", "MSNDATE": "7/29/1918", "LATITUDE": 48.152448, "MDS": "FE2B", "NUMBEROFPLANESATTACKING": 36}, {"TGTLOCATION": "STUTTGART", "COUNTRY": "UK", "LONGITUDE": 9.183333, "TGTCOUNTRY": "GERMANY", "MSNDATE": "7/29/1918", "LATITUDE": 48.766667, "MDS": "HADLEY PAGE O/100", "NUMBEROFPLANESATTACKING": 34}, {"TGTLOCATION": "OFFENBURG", "COUNTRY": "UK", "LONGITUDE": 7.916667, "TGTCOUNTRY": "GERMANY", "MSNDATE": "7/30/1918", "LATITUDE": 48.45, "MDS": "AIRCO DH4 DAY BOMBER", "NUMBEROFPLANESATTACKING": 3}, {"TGTLOCATION": "LAHR", "COUNTRY": "UK", "LONGITUDE": 7.8775617, "TGTCOUNTRY": "GERMANY", "MSNDATE": "7/30/1918", "LATITUDE": 48.3427939, "MDS": "AIRCO DH9 DAY BOMBER", "NUMBEROFPLANESATTACKING": 35}, {"TGTLOCATION": "STUTTGART & HAGENAU", "COUNTRY": "UK", "LONGITUDE": 9.183333, "TGTCOUNTRY": "GERMANY", "MSNDATE": "7/30/1918", "LATITUDE": 48.766667, "MDS": "HADLEY PAGE O/100", "NUMBEROFPLANESATTACKING": 28}, {"TGTLOCATION": "COBLENZ", "COUNTRY": "UK", "LONGITUDE": 7.5996166, "TGTCOUNTRY": "GERMANY", "MSNDATE": "7/31/1918", "LATITUDE": 50.3566962, "MDS": "AIRCO DH4 DAY BOMBER", "NUMBEROFPLANESATTACKING": 3}, {"TGTLOCATION": "SAARBRUCKEN", "COUNTRY": "UK", "LONGITUDE": 7, "TGTCOUNTRY": "GERMANY", "MSNDATE": "7/31/1918", "LATITUDE": 49.233333, "MDS": "AIRCO DH9 DAY BOMBER", "NUMBEROFPLANESATTACKING": 31}, {"TGTLOCATION": "SAARBRUCKEN", "COUNTRY": "UK", "LONGITUDE": 7, "TGTCOUNTRY": "GERMANY", "MSNDATE": "7/31/1918", "LATITUDE": 49.233333, "MDS": "AIRCO DH9 DAY BOMBER", "NUMBEROFPLANESATTACKING": 5}, {"TGTLOCATION": "CONFLANS", "COUNTRY": "USA", "LONGITUDE": 5.887931, "TGTCOUNTRY": "FRANCE", "MSNDATE": "8/1/1918", "LATITUDE": 49.162052, "MDS": "BREGUET 14 B2", "NUMBEROFPLANESATTACKING": 36}, {"TGTLOCATION": "DUREN", "COUNTRY": "UK", "LONGITUDE": 6.486958, "TGTCOUNTRY": "GERMANY", "MSNDATE": "8/1/1918", "LATITUDE": 50.7998461, "MDS": "AIRCO DH4 DAY BOMBER", "NUMBEROFPLANESATTACKING": 4}, {"TGTLOCATION": "TREVES", "COUNTRY": "UK", "LONGITUDE": 4.675828, "TGTCOUNTRY": "FRANCE", "MSNDATE": "8/1/1918", "LATITUDE": 45.538718, "MDS": "AIRCO DH9 DAY BOMBER", "NUMBEROFPLANESATTACKING": 3}, {"TGTLOCATION": "WALLINGEN", "COUNTRY": "UK", "LONGITUDE": 6.105488, "TGTCOUNTRY": "FRANCE", "MSNDATE": "8/8/1918", "LATITUDE": 49.268728, "MDS": "AIRCO DH4 DAY BOMBER", "NUMBEROFPLANESATTACKING": 4}, {"TGTLOCATION": "LONGUYON", "COUNTRY": "USA", "LONGITUDE": 5.605391, "TGTCOUNTRY": "FRANCE", "MSNDATE": "8/11/1918", "LATITUDE": 49.454543, "MDS": "BREGUET 14 B2", "NUMBEROFPLANESATTACKING": 36}, {"TGTLOCATION": "BUHL AND METZ-SABLON", "COUNTRY": "UK", "LONGITUDE": 8.007115, "TGTCOUNTRY": "FRANCE", "MSNDATE": "8/11/1918", "LATITUDE": 48.915636, "MDS": "AIRCO DH4 DAY BOMBER", "NUMBEROFPLANESATTACKING": 28}, {"TGTLOCATION": "KARLSRUHE", "COUNTRY": "UK", "LONGITUDE": 8.4037563, "TGTCOUNTRY": "GERMANY", "MSNDATE": "8/11/1918", "LATITUDE": 49.0080848, "MDS": "AIRCO DH9 DAY BOMBER", "NUMBEROFPLANESATTACKING": 3}, {"TGTLOCATION": "MORHANGE", "COUNTRY": "UK", "LONGITUDE": 6.6363888, "TGTCOUNTRY": "FRANCE", "MSNDATE": "8/11/1918", "LATITUDE": 48.924444, "MDS": "FE2B", "NUMBEROFPLANESATTACKING": 14}, {"TGTLOCATION": "BUHL", "COUNTRY": "UK", "LONGITUDE": 8.007115, "TGTCOUNTRY": "FRANCE", "MSNDATE": "8/11/1918", "LATITUDE": 48.915636, "MDS": "HADLEY PAGE O/100", "NUMBEROFPLANESATTACKING": 2}, {"TGTLOCATION": "CONFLANS", "COUNTRY": "USA", "LONGITUDE": 5.873951, "TGTCOUNTRY": "FRANCE", "MSNDATE": "8/12/1918", "LATITUDE": 49.167381, "MDS": "BREGUET 14 B2", "NUMBEROFPLANESATTACKING": 33}, {"TGTLOCATION": "FRANKFURT", "COUNTRY": "UK", "LONGITUDE": 8.6806154, "TGTCOUNTRY": "GERMANY", "MSNDATE": "8/12/1918", "LATITUDE": 50.1114451, "MDS": "AIRCO DH4 DAY BOMBER", "NUMBEROFPLANESATTACKING": 5}, {"TGTLOCATION": "HAGENAU", "COUNTRY": "UK", "LONGITUDE": 7.79125, "TGTCOUNTRY": "GERMANY", "MSNDATE": "8/12/1918", "LATITUDE": 48.813288, "MDS": "AIRCO DH9 DAY BOMBER", "NUMBEROFPLANESATTACKING": 4}, {"TGTLOCATION": "DIEUZE, MORHANGE, FALKENBURG", "COUNTRY": "UK", "LONGITUDE": 6.71757, "TGTCOUNTRY": "FRANCE", "MSNDATE": "8/12/1918", "LATITUDE": 48.810313, "MDS": "FE2B", "NUMBEROFPLANESATTACKING": 4}, {"TGTLOCATION": "DOMMARY-BARONCOURT", "COUNTRY": "USA", "LONGITUDE": 5.708111, "TGTCOUNTRY": "FRANCE", "MSNDATE": "8/13/1918", "LATITUDE": 49.280308, "MDS": "BREGUET 14 B2", "NUMBEROFPLANESATTACKING": 34}, {"TGTLOCATION": "BUHL", "COUNTRY": "UK", "LONGITUDE": 8.007115, "TGTCOUNTRY": "FRANCE", "MSNDATE": "8/13/1918", "LATITUDE": 48.915636, "MDS": "AIRCO DH4 DAY BOMBER", "NUMBEROFPLANESATTACKING": 3}, {"TGTLOCATION": "THIONVILLE", "COUNTRY": "UK", "LONGITUDE": 6.167606, "TGTCOUNTRY": "FRANCE", "MSNDATE": "8/13/1918", "LATITUDE": 49.356794, "MDS": "AIRCO DH9 DAY BOMBER", "NUMBEROFPLANESATTACKING": 4}, {"TGTLOCATION": "BUHL, MORHANGE", "COUNTRY": "UK", "LONGITUDE": 8.007115, "TGTCOUNTRY": "FRANCE", "MSNDATE": "8/13/1918", "LATITUDE": 48.915636, "MDS": "FE2B", "NUMBEROFPLANESATTACKING": 36}, {"TGTLOCATION": "THIONVILLE", "COUNTRY": "UK", "LONGITUDE": 6.167606, "TGTCOUNTRY": "FRANCE", "MSNDATE": "8/13/1918", "LATITUDE": 49.356794, "MDS": "HADLEY PAGE O/100", "NUMBEROFPLANESATTACKING": 2}, {"TGTLOCATION": "LONGUYON", "COUNTRY": "USA", "LONGITUDE": 5.604436, "TGTCOUNTRY": "FRANCE", "MSNDATE": "8/14/1918", "LATITUDE": 49.443273, "MDS": "BREGUET 14 B2", "NUMBEROFPLANESATTACKING": 31}, {"TGTLOCATION": "DOMMARY-BARONCOURT", "COUNTRY": "USA", "LONGITUDE": 5.699679, "TGTCOUNTRY": "FRANCE", "MSNDATE": "8/14/1918", "LATITUDE": 49.278345, "MDS": "BREGUET 14 B2", "NUMBEROFPLANESATTACKING": 34}, {"TGTLOCATION": "OFFENBURG", "COUNTRY": "UK", "LONGITUDE": 7.916667, "TGTCOUNTRY": "GERMANY", "MSNDATE": "8/14/1918", "LATITUDE": 48.45, "MDS": "AIRCO DH4 DAY BOMBER", "NUMBEROFPLANESATTACKING": 3}, {"TGTLOCATION": "BUHL", "COUNTRY": "UK", "LONGITUDE": 8.007115, "TGTCOUNTRY": "FRANCE", "MSNDATE": "8/14/1918", "LATITUDE": 48.915636, "MDS": "FE2B", "NUMBEROFPLANESATTACKING": 5}, {"TGTLOCATION": "BUHL, SAARBURG, ST AUOLD", "COUNTRY": "UK", "LONGITUDE": 8.007115, "TGTCOUNTRY": "FRANCE", "MSNDATE": "8/14/1918", "LATITUDE": 48.915636, "MDS": "HADLEY PAGE O/100", "NUMBEROFPLANESATTACKING": 35}, {"TGTLOCATION": "DOMMARY-BARONCOURT", "COUNTRY": "USA", "LONGITUDE": 5.70765, "TGTCOUNTRY": "FRANCE", "MSNDATE": "8/15/1918", "LATITUDE": 49.278926, "MDS": "BREGUET 14 B2", "NUMBEROFPLANESATTACKING": 33}, {"TGTLOCATION": "CONFLANS", "COUNTRY": "USA", "LONGITUDE": 5.878078, "TGTCOUNTRY": "FRANCE", "MSNDATE": "8/15/1918", "LATITUDE": 49.16557, "MDS": "BREGUET 14 B2", "NUMBEROFPLANESATTACKING": 31}, {"TGTLOCATION": "BOULAY", "COUNTRY": "UK", "LONGITUDE": 2.202988, "TGTCOUNTRY": "FRANCE", "MSNDATE": "8/15/1918", "LATITUDE": 48.152448, "MDS": "AIRCO DH9 DAY BOMBER", "NUMBEROFPLANESATTACKING": 28}, {"TGTLOCATION": "BOULAY", "COUNTRY": "UK", "LONGITUDE": 2.202988, "TGTCOUNTRY": "FRANCE", "MSNDATE": "8/15/1918", "LATITUDE": 48.152448, "MDS": "AIRCO DH9 DAY BOMBER", "NUMBEROFPLANESATTACKING": 4}, {"TGTLOCATION": "BOULAY, FREISDORF, BUHL,", "COUNTRY": "UK", "LONGITUDE": 2.202988, "TGTCOUNTRY": "FRANCE", "MSNDATE": "8/15/1918", "LATITUDE": 48.152448, "MDS": "FE2B", "NUMBEROFPLANESATTACKING": 3}, {"TGTLOCATION": "BOULAY, MANN, SAARBRUCKEN, BUHL", "COUNTRY": "UK", "LONGITUDE": 2.202988, "TGTCOUNTRY": "GERMANY", "MSNDATE": "8/15/1918", "LATITUDE": 48.152448, "MDS": "HADLEY PAGE O/100", "NUMBEROFPLANESATTACKING": 35}, {"TGTLOCATION": "DOMMARY-BARONCOURT", "COUNTRY": "USA", "LONGITUDE": 5.725872, "TGTCOUNTRY": "FRANCE", "MSNDATE": "8/16/1918", "LATITUDE": 49.27886, "MDS": "BREGUET 14 B2", "NUMBEROFPLANESATTACKING": 35}, {"TGTLOCATION": "DARMSTADT", "COUNTRY": "UK", "LONGITUDE": 8.649444, "TGTCOUNTRY": "GERMANY", "MSNDATE": "8/16/1918", "LATITUDE": 49.870556, "MDS": "AIRCO DH4 DAY BOMBER", "NUMBEROFPLANESATTACKING": 34}, {"TGTLOCATION": "BUHL, BOUL, MORHANGE REMILLY", "COUNTRY": "UK", "LONGITUDE": 8.007115, "TGTCOUNTRY": "FRANCE", "MSNDATE": "8/16/1918", "LATITUDE": 48.915636, "MDS": "FE2B", "NUMBEROFPLANESATTACKING": 34}, {"TGTLOCATION": "BOULAY, SAARBURG", "COUNTRY": "UK", "LONGITUDE": 2.202988, "TGTCOUNTRY": "FRANCE", "MSNDATE": "8/16/1918", "LATITUDE": 48.152448, "MDS": "HADLEY PAGE O/100", "NUMBEROFPLANESATTACKING": 14}, {"TGTLOCATION": "FREISDORF, MORHANGE BOULAY", "COUNTRY": "UK", "LONGITUDE": 8.8519121, "TGTCOUNTRY": "GERMANY", "MSNDATE": "8/17/1918", "LATITUDE": 52.823785, "MDS": "FE2B", "NUMBEROFPLANESATTACKING": 36}, {"TGTLOCATION": "SAARBURG, FORBACH", "COUNTRY": "UK", "LONGITUDE": 9.983333, "TGTCOUNTRY": "GERMANY", "MSNDATE": "8/17/1918", "LATITUDE": 49.133333, "MDS": "HADLEY PAGE O/100", "NUMBEROFPLANESATTACKING": 34}, {"TGTLOCATION": "BOULAY, MORHANGE", "COUNTRY": "UK", "LONGITUDE": 2.202988, "TGTCOUNTRY": "FRANCE", "MSNDATE": "8/18/1918", "LATITUDE": 48.152448, "MDS": "FE2B", "NUMBEROFPLANESATTACKING": 34}, {"TGTLOCATION": "SAARBRUCKCN, BUHL, BOULAY", "COUNTRY": "UK", "LONGITUDE": 7, "TGTCOUNTRY": "GERMANY", "MSNDATE": "8/18/1918", "LATITUDE": 49.233333, "MDS": "HADLEY PAGE O/100", "NUMBEROFPLANESATTACKING": 31}, {"TGTLOCATION": "METZ-SABLON", "COUNTRY": "UK", "LONGITUDE": 6.175875, "TGTCOUNTRY": "FRANCE", "MSNDATE": "8/19/1918", "LATITUDE": 49.115461, "MDS": "HADLEY PAGE O/400", "NUMBEROFPLANESATTACKING": 23}, {"TGTLOCATION": "BOULAY, MORHANGE AVRICOURT", "COUNTRY": "UK", "LONGITUDE": 2.202988, "TGTCOUNTRY": "FRANCE", "MSNDATE": "8/19/1918", "LATITUDE": 48.152448, "MDS": "FE2B", "NUMBEROFPLANESATTACKING": 36}, {"TGTLOCATION": "MORHANGE, BOULAY", "COUNTRY": "UK", "LONGITUDE": 6.6363888, "TGTCOUNTRY": "FRANCE", "MSNDATE": "8/19/1918", "LATITUDE": 48.924444, "MDS": "HADLEY PAGE O/100", "NUMBEROFPLANESATTACKING": 14}, {"TGTLOCATION": "FLABEUVILLE", "COUNTRY": "USA", "LONGITUDE": 5.544336, "TGTCOUNTRY": "FRANCE", "MSNDATE": "8/20/1918", "LATITUDE": 49.461981, "MDS": "BREGUET 14 B2", "NUMBEROFPLANESATTACKING": 1}, {"TGTLOCATION": "FLABEUVILLE", "COUNTRY": "USA", "LONGITUDE": 5.544336, "TGTCOUNTRY": "FRANCE", "MSNDATE": "8/20/1918", "LATITUDE": 49.461981, "MDS": "BREGUET 14 B2", "NUMBEROFPLANESATTACKING": 1}, {"TGTLOCATION": "DILLENGEN", "COUNTRY": "UK", "LONGITUDE": 10.4953485, "TGTCOUNTRY": "AUSTRIA", "MSNDATE": "8/20/1918", "LATITUDE": 48.5812458, "MDS": "AIRCO DH9 DAY BOMBER", "NUMBEROFPLANESATTACKING": 2}, {"TGTLOCATION": "METZ-SABLON, BUHL", "COUNTRY": "UK", "LONGITUDE": 6.175875, "TGTCOUNTRY": "FRANCE", "MSNDATE": "8/20/1918", "LATITUDE": 49.115461, "MDS": "HADLEY PAGE O/400", "NUMBEROFPLANESATTACKING": 31}, {"TGTLOCATION": "BOULAY, MORHANGE", "COUNTRY": "UK", "LONGITUDE": 2.202988, "TGTCOUNTRY": "FRANCE", "MSNDATE": "8/20/1918", "LATITUDE": 48.152448, "MDS": "FE2B", "NUMBEROFPLANESATTACKING": 34}, {"TGTLOCATION": "BOULAY", "COUNTRY": "UK", "LONGITUDE": 2.202988, "TGTCOUNTRY": "FRANCE", "MSNDATE": "8/20/1918", "LATITUDE": 48.152448, "MDS": "HADLEY PAGE O/100", "NUMBEROFPLANESATTACKING": 14}, {"TGTLOCATION": "LONGUYON", "COUNTRY": "USA", "LONGITUDE": 5.604644, "TGTCOUNTRY": "FRANCE", "MSNDATE": "8/21/1918", "LATITUDE": 49.444184, "MDS": "BREGUET 14 B2", "NUMBEROFPLANESATTACKING": 33}, {"TGTLOCATION": "LONGUYON", "COUNTRY": "USA", "LONGITUDE": 5.604644, "TGTCOUNTRY": "FRANCE", "MSNDATE": "8/21/1918", "LATITUDE": 49.444184, "MDS": "BREGUET 14 B2", "NUMBEROFPLANESATTACKING": 33}, {"TGTLOCATION": "AUDEN-LE-ROMAN", "COUNTRY": "USA", "LONGITUDE": 5.898693, "TGTCOUNTRY": "FRANCE", "MSNDATE": "8/21/1918", "LATITUDE": 49.365613, "MDS": "BREGUET 14 B2", "NUMBEROFPLANESATTACKING": 34}, {"TGTLOCATION": "AUDEN-LE-ROMAN", "COUNTRY": "USA", "LONGITUDE": 5.898693, "TGTCOUNTRY": "FRANCE", "MSNDATE": "8/21/1918", "LATITUDE": 49.365613, "MDS": "BREGUET 14 B2", "NUMBEROFPLANESATTACKING": 34}, {"TGTLOCATION": "BUHL, MORHANGE, LORQUIN", "COUNTRY": "UK", "LONGITUDE": 8.007115, "TGTCOUNTRY": "FRANCE", "MSNDATE": "8/21/1918", "LATITUDE": 48.915636, "MDS": "HADLEY PAGE O/400", "NUMBEROFPLANESATTACKING": 31}, {"TGTLOCATION": "MORHANGE, BUHL", "COUNTRY": "UK", "LONGITUDE": 6.6363888, "TGTCOUNTRY": "FRANCE", "MSNDATE": "8/21/1918", "LATITUDE": 48.924444, "MDS": "FE2B", "NUMBEROFPLANESATTACKING": 33}, {"TGTLOCATION": "COLOQNE, FRANK, BOUL, TREVES", "COUNTRY": "UK", "LONGITUDE": 6.9599115, "TGTCOUNTRY": "GERMANY", "MSNDATE": "8/21/1918", "LATITUDE": 50.9406645, "MDS": "HADLEY PAGE O/100", "NUMBEROFPLANESATTACKING": 34}, {"TGTLOCATION": "CONFLANS", "COUNTRY": "USA", "LONGITUDE": 5.869652, "TGTCOUNTRY": "FRANCE", "MSNDATE": "8/22/1918", "LATITUDE": 49.167418, "MDS": "BREGUET 14 B2", "NUMBEROFPLANESATTACKING": 34}, {"TGTLOCATION": "CONFLANS", "COUNTRY": "USA", "LONGITUDE": 5.869652, "TGTCOUNTRY": "FRANCE", "MSNDATE": "8/22/1918", "LATITUDE": 49.167418, "MDS": "BREGUET 14 B2", "NUMBEROFPLANESATTACKING": 34}, {"TGTLOCATION": "COBIENZ. WHITLICK", "COUNTRY": "UK", "LONGITUDE": 7.5996166, "TGTCOUNTRY": "GERMANY", "MSNDATE": "8/22/1918", "LATITUDE": 50.3566962, "MDS": "AIRCO DH4 DAY BOMBER", "NUMBEROFPLANESATTACKING": 35}, {"TGTLOCATION": "HAGENAU", "COUNTRY": "UK", "LONGITUDE": 7.79125, "TGTCOUNTRY": "GERMANY", "MSNDATE": "8/22/1918", "LATITUDE": 48.813288, "MDS": "AIRCO DH9 DAY BOMBER", "NUMBEROFPLANESATTACKING": 28}, {"TGTLOCATION": "MANNHEIM", "COUNTRY": "UK", "LONGITUDE": 8.464722, "TGTCOUNTRY": "GERMANY", "MSNDATE": "8/22/1918", "LATITUDE": 49.488333, "MDS": "AIRCO DH9 DAY BOMBER", "NUMBEROFPLANESATTACKING": 3}, {"TGTLOCATION": "FOLPERSWEILER, HERZING", "COUNTRY": "UK", "LONGITUDE": 7.118926, "TGTCOUNTRY": "GERMANY", "MSNDATE": "8/22/1918", "LATITUDE": 49.12558134, "MDS": "HADLEY PAGE O/400", "NUMBEROFPLANESATTACKING": 14}, {"TGTLOCATION": "FOLPERSWEILER, AVRICT, SAARBRUCKEN", "COUNTRY": "UK", "LONGITUDE": 7.118926, "TGTCOUNTRY": "GERMANY", "MSNDATE": "8/22/1918", "LATITUDE": 49.12558134, "MDS": "FE2B", "NUMBEROFPLANESATTACKING": 33}, {"TGTLOCATION": "FOLPERSWEILER", "COUNTRY": "UK", "LONGITUDE": 7.118926, "TGTCOUNTRY": "GERMANY", "MSNDATE": "8/22/1918", "LATITUDE": 49.12558134, "MDS": "HADLEY PAGE O/400", "NUMBEROFPLANESATTACKING": 35}, {"TGTLOCATION": "CONFLANS", "COUNTRY": "USA", "LONGITUDE": 5.868651, "TGTCOUNTRY": "FRANCE", "MSNDATE": "8/23/1918", "LATITUDE": 49.168644, "MDS": "BREGUET 14 B2", "NUMBEROFPLANESATTACKING": 35}, {"TGTLOCATION": "CONFLANS", "COUNTRY": "USA", "LONGITUDE": 5.868651, "TGTCOUNTRY": "FRANCE", "MSNDATE": "8/23/1918", "LATITUDE": 49.168644, "MDS": "BREGUET 14 B2", "NUMBEROFPLANESATTACKING": 35}, {"TGTLOCATION": "CONFLANS", "COUNTRY": "USA", "LONGITUDE": 5.876031, "TGTCOUNTRY": "FRANCE", "MSNDATE": "8/23/1918", "LATITUDE": 49.167533, "MDS": "BREGUET 14 B2", "NUMBEROFPLANESATTACKING": 33}, {"TGTLOCATION": "CONFLANS", "COUNTRY": "USA", "LONGITUDE": 5.876031, "TGTCOUNTRY": "FRANCE", "MSNDATE": "8/23/1918", "LATITUDE": 49.167533, "MDS": "BREGUET 14 B2", "NUMBEROFPLANESATTACKING": 33}, {"TGTLOCATION": "BUHL", "COUNTRY": "UK", "LONGITUDE": 8.007115, "TGTCOUNTRY": "FRANCE", "MSNDATE": "8/23/1918", "LATITUDE": 48.915636, "MDS": "AIRCO DH9 DAY BOMBER", "NUMBEROFPLANESATTACKING": 5}, {"TGTLOCATION": "TREVES", "COUNTRY": "UK", "LONGITUDE": 4.675828, "TGTCOUNTRY": "FRANCE", "MSNDATE": "8/23/1918", "LATITUDE": 45.538718, "MDS": "AIRCO DH4 DAY BOMBER", "NUMBEROFPLANESATTACKING": 3}, {"TGTLOCATION": "BOULAY", "COUNTRY": "UK", "LONGITUDE": 2.202988, "TGTCOUNTRY": "FRANCE", "MSNDATE": "8/23/1918", "LATITUDE": 48.152448, "MDS": "FE2B", "NUMBEROFPLANESATTACKING": 23}, {"TGTLOCATION": "FRANKFURT, BOULAY", "COUNTRY": "UK", "LONGITUDE": 8.6806154, "TGTCOUNTRY": "GERMANY", "MSNDATE": "8/24/1918", "LATITUDE": 50.1114451, "MDS": "HADLEY PAGE O/100", "NUMBEROFPLANESATTACKING": 14}, {"TGTLOCATION": "CONFLANS", "COUNTRY": "USA", "LONGITUDE": 5.870852, "TGTCOUNTRY": "FRANCE", "MSNDATE": "8/25/1918", "LATITUDE": 49.167287, "MDS": "BREGUET 14 B2", "NUMBEROFPLANESATTACKING": 34}, {"TGTLOCATION": "CONFLANS", "COUNTRY": "USA", "LONGITUDE": 5.870852, "TGTCOUNTRY": "FRANCE", "MSNDATE": "8/25/1918", "LATITUDE": 49.167287, "MDS": "BREGUET 14 B2", "NUMBEROFPLANESATTACKING": 34}, {"TGTLOCATION": "LONGUYON", "COUNTRY": "USA", "LONGITUDE": 5.608248, "TGTCOUNTRY": "FRANCE", "MSNDATE": "8/25/1918", "LATITUDE": 49.446067, "MDS": "BREGUET 14 B2", "NUMBEROFPLANESATTACKING": 14}, {"TGTLOCATION": "LONGUYON", "COUNTRY": "USA", "LONGITUDE": 5.608248, "TGTCOUNTRY": "FRANCE", "MSNDATE": "8/25/1918", "LATITUDE": 49.446067, "MDS": "BREGUET 14 B2", "NUMBEROFPLANESATTACKING": 14}, {"TGTLOCATION": "MORHANGE, LUXEMBOURG", "COUNTRY": "UK", "LONGITUDE": 6.6363888, "TGTCOUNTRY": "FRANCE", "MSNDATE": "8/25/1918", "LATITUDE": 48.924444, "MDS": "AIRCO DH4 DAY BOMBER", "NUMBEROFPLANESATTACKING": 36}, {"TGTLOCATION": "SAARBRUCKEN", "COUNTRY": "UK", "LONGITUDE": 7, "TGTCOUNTRY": "GERMANY", "MSNDATE": "8/25/1918", "LATITUDE": 49.233333, "MDS": "AIRCO DH4 DAY BOMBER", "NUMBEROFPLANESATTACKING": 36}, {"TGTLOCATION": "BETTEMBOURG", "COUNTRY": "UK", "LONGITUDE": 6.1043747, "TGTCOUNTRY": "LUXEMBOURG", "MSNDATE": "8/25/1918", "LATITUDE": 49.5177146, "MDS": "AIRCO DH9 DAY BOMBER", "NUMBEROFPLANESATTACKING": 5}, {"TGTLOCATION": "ORENBURG", "COUNTRY": "UK", "LONGITUDE": 7.916667, "TGTCOUNTRY": "GERMANY", "MSNDATE": "8/25/1918", "LATITUDE": 48.45, "MDS": "AIRCO DH9 DAY BOMBER", "NUMBEROFPLANESATTACKING": 4}, {"TGTLOCATION": "BOULAY", "COUNTRY": "UK", "LONGITUDE": 2.202988, "TGTCOUNTRY": "FRANCE", "MSNDATE": "8/25/1918", "LATITUDE": 48.152448, "MDS": "HADLEY PAGE O/400", "NUMBEROFPLANESATTACKING": 23}, {"TGTLOCATION": "MANNHEIM, BOULAY", "COUNTRY": "UK", "LONGITUDE": 8.464722, "TGTCOUNTRY": "GERMANY", "MSNDATE": "8/25/1918", "LATITUDE": 49.488333, "MDS": "HADLEY PAGE O/400", "NUMBEROFPLANESATTACKING": 31}, {"TGTLOCATION": "CONFLANS", "COUNTRY": "UK", "LONGITUDE": 5.872321129, "TGTCOUNTRY": "FRANCE", "MSNDATE": "8/27/1918", "LATITUDE": 49.1641817, "MDS": "AIRCO DH4 DAY BOMBER", "NUMBEROFPLANESATTACKING": 3}, {"TGTLOCATION": "BUHL", "COUNTRY": "UK", "LONGITUDE": 8.007115, "TGTCOUNTRY": "FRANCE", "MSNDATE": "8/27/1918", "LATITUDE": 48.915636, "MDS": "AIRCO DH9 DAY BOMBER", "NUMBEROFPLANESATTACKING": 33}, {"TGTLOCATION": "CONFLANS", "COUNTRY": "USA", "LONGITUDE": 5.871589, "TGTCOUNTRY": "FRANCE", "MSNDATE": "8/30/1918", "LATITUDE": 49.159182, "MDS": "BREGUET 14 B2", "NUMBEROFPLANESATTACKING": 36}, {"TGTLOCATION": "CONFLANS", "COUNTRY": "USA", "LONGITUDE": 5.871589, "TGTCOUNTRY": "FRANCE", "MSNDATE": "8/30/1918", "LATITUDE": 49.159182, "MDS": "BREGUET 14 B2", "NUMBEROFPLANESATTACKING": 36}, {"TGTLOCATION": "DOMMARY-BARONCOURT", "COUNTRY": "USA", "LONGITUDE": 5.699383, "TGTCOUNTRY": "FRANCE", "MSNDATE": "8/30/1918", "LATITUDE": 49.286222, "MDS": "BREGUET 14 B2", "NUMBEROFPLANESATTACKING": 34}, {"TGTLOCATION": "DOMMARY-BARONCOURT", "COUNTRY": "USA", "LONGITUDE": 5.699383, "TGTCOUNTRY": "FRANCE", "MSNDATE": "8/30/1918", "LATITUDE": 49.286222, "MDS": "BREGUET 14 B2", "NUMBEROFPLANESATTACKING": 34}, {"TGTLOCATION": "CONFLANS", "COUNTRY": "USA", "LONGITUDE": 5.867188, "TGTCOUNTRY": "FRANCE", "MSNDATE": "8/30/1918", "LATITUDE": 49.167058, "MDS": "BREGUET 14 B2", "NUMBEROFPLANESATTACKING": 33}, {"TGTLOCATION": "CONFLANS", "COUNTRY": "USA", "LONGITUDE": 5.867188, "TGTCOUNTRY": "FRANCE", "MSNDATE": "8/30/1918", "LATITUDE": 49.167058, "MDS": "BREGUET 14 B2", "NUMBEROFPLANESATTACKING": 33}, {"TGTLOCATION": "CONFLANS, THIONVILLE", "COUNTRY": "UK", "LONGITUDE": 5.848631, "TGTCOUNTRY": "FRANCE", "MSNDATE": "8/30/1918", "LATITUDE": 49.16768, "MDS": "AIRCO DH4 DAY BOMBER", "NUMBEROFPLANESATTACKING": 4}, {"TGTLOCATION": "CONFLANS, DONCOURT", "COUNTRY": "UK", "LONGITUDE": 5.848631, "TGTCOUNTRY": "FRANCE", "MSNDATE": "8/30/1918", "LATITUDE": 49.16768, "MDS": "AIRCO DH9 DAY BOMBER", "NUMBEROFPLANESATTACKING": 4}, {"TGTLOCATION": "BOULAY, MORHANGE", "COUNTRY": "UK", "LONGITUDE": 2.202988, "TGTCOUNTRY": "FRANCE", "MSNDATE": "8/30/1918", "LATITUDE": 48.152448, "MDS": "HADLEY PAGE O/400", "NUMBEROFPLANESATTACKING": 23}, {"TGTLOCATION": "BOULAY", "COUNTRY": "UK", "LONGITUDE": 2.202988, "TGTCOUNTRY": "FRANCE", "MSNDATE": "8/30/1918", "LATITUDE": 48.152448, "MDS": "FE2B", "NUMBEROFPLANESATTACKING": 31}, {"TGTLOCATION": "BOULAY", "COUNTRY": "UK", "LONGITUDE": 2.202988, "TGTCOUNTRY": "FRANCE", "MSNDATE": "8/30/1918", "LATITUDE": 48.152448, "MDS": "HADLEY PAGE O/400", "NUMBEROFPLANESATTACKING": 33}, {"TGTLOCATION": "BOULAY", "COUNTRY": "UK", "LONGITUDE": 2.202988, "TGTCOUNTRY": "FRANCE", "MSNDATE": "8/30/1918", "LATITUDE": 48.152448, "MDS": "HADLEY PAGE O/400", "NUMBEROFPLANESATTACKING": 2}, {"TGTLOCATION": "AUDEN-LE-ROMAN", "COUNTRY": "USA", "LONGITUDE": 5.895311, "TGTCOUNTRY": "FRANCE", "MSNDATE": "9/2/1918", "LATITUDE": 49.367587, "MDS": "BREGUET 14 B2", "NUMBEROFPLANESATTACKING": 33}, {"TGTLOCATION": "AUDEN-LE-ROMAN", "COUNTRY": "USA", "LONGITUDE": 5.895311, "TGTCOUNTRY": "FRANCE", "MSNDATE": "9/2/1918", "LATITUDE": 49.367587, "MDS": "BREGUET 14 B2", "NUMBEROFPLANESATTACKING": 33}, {"TGTLOCATION": "LONGUYON", "COUNTRY": "USA", "LONGITUDE": 5.610081, "TGTCOUNTRY": "FRANCE", "MSNDATE": "9/2/1918", "LATITUDE": 49.442119, "MDS": "BREGUET 14 B2", "NUMBEROFPLANESATTACKING": 34}, {"TGTLOCATION": "LONGUYON", "COUNTRY": "USA", "LONGITUDE": 5.610081, "TGTCOUNTRY": "FRANCE", "MSNDATE": "9/2/1918", "LATITUDE": 49.442119, "MDS": "BREGUET 14 B2", "NUMBEROFPLANESATTACKING": 34}, {"TGTLOCATION": "BUHL (0930 & 1520)", "COUNTRY": "UK", "LONGITUDE": 8.007115, "TGTCOUNTRY": "FRANCE", "MSNDATE": "9/2/1918", "LATITUDE": 48.915636, "MDS": "AIRCO DH4 DAY BOMBER", "NUMBEROFPLANESATTACKING": 15}, {"TGTLOCATION": "BUHL (0900 & 1530)", "COUNTRY": "UK", "LONGITUDE": 8.007115, "TGTCOUNTRY": "FRANCE", "MSNDATE": "9/2/1918", "LATITUDE": 48.915636, "MDS": "AIRCO DH9 DAY BOMBER", "NUMBEROFPLANESATTACKING": 20}, {"TGTLOCATION": "BUHL (0925 & 1540)", "COUNTRY": "UK", "LONGITUDE": 8.007115, "TGTCOUNTRY": "FRANCE", "MSNDATE": "9/2/1918", "LATITUDE": 48.915636, "MDS": "AIRCO DH9 DAY BOMBER", "NUMBEROFPLANESATTACKING": 18}, {"TGTLOCATION": "BUHL", "COUNTRY": "UK", "LONGITUDE": 8.007115, "TGTCOUNTRY": "FRANCE", "MSNDATE": "9/2/1918", "LATITUDE": 48.915636, "MDS": "HADLEY PAGE O/400", "NUMBEROFPLANESATTACKING": 31}, {"TGTLOCATION": "BOULAY", "COUNTRY": "UK", "LONGITUDE": 2.202988, "TGTCOUNTRY": "FRANCE", "MSNDATE": "9/2/1918", "LATITUDE": 48.152448, "MDS": "HADLEY PAGE O/400", "NUMBEROFPLANESATTACKING": 14}, {"TGTLOCATION": "BUHL, EHRANG", "COUNTRY": "UK", "LONGITUDE": 8.007115, "TGTCOUNTRY": "FRANCE", "MSNDATE": "9/2/1918", "LATITUDE": 48.915636, "MDS": "HADLEY PAGE O/400", "NUMBEROFPLANESATTACKING": 36}, {"TGTLOCATION": "SAARBRUCKEN, BOULAY", "COUNTRY": "UK", "LONGITUDE": 7, "TGTCOUNTRY": "GERMANY", "MSNDATE": "9/2/1918", "LATITUDE": 49.233333, "MDS": "HADLEY PAGE O/400", "NUMBEROFPLANESATTACKING": 35}, {"TGTLOCATION": "LONGUYON", "COUNTRY": "USA", "LONGITUDE": 5.607775, "TGTCOUNTRY": "FRANCE", "MSNDATE": "9/3/1918", "LATITUDE": 49.441015, "MDS": "BREGUET 14 B2", "NUMBEROFPLANESATTACKING": 33}, {"TGTLOCATION": "LONGUYON", "COUNTRY": "USA", "LONGITUDE": 5.607775, "TGTCOUNTRY": "FRANCE", "MSNDATE": "9/3/1918", "LATITUDE": 49.441015, "MDS": "BREGUET 14 B2", "NUMBEROFPLANESATTACKING": 33}, {"TGTLOCATION": "CONFLANS", "COUNTRY": "USA", "LONGITUDE": 5.887923, "TGTCOUNTRY": "FRANCE", "MSNDATE": "9/3/1918", "LATITUDE": 49.162052, "MDS": "BREGUET 14 B2", "NUMBEROFPLANESATTACKING": 33}, {"TGTLOCATION": "CONFLANS", "COUNTRY": "USA", "LONGITUDE": 5.887923, "TGTCOUNTRY": "FRANCE", "MSNDATE": "9/3/1918", "LATITUDE": 49.162052, "MDS": "BREGUET 14 B2", "NUMBEROFPLANESATTACKING": 33}, {"TGTLOCATION": "MORHANQE", "COUNTRY": "UK", "LONGITUDE": 6.6363888, "TGTCOUNTRY": "FRANCE", "MSNDATE": "9/3/1918", "LATITUDE": 48.924444, "MDS": "AIRCO DH9 DAY BOMBER", "NUMBEROFPLANESATTACKING": 4}, {"TGTLOCATION": "MORHANGE", "COUNTRY": "UK", "LONGITUDE": 6.6363888, "TGTCOUNTRY": "FRANCE", "MSNDATE": "9/3/1918", "LATITUDE": 48.924444, "MDS": "AIRCO DH9 DAY BOMBER", "NUMBEROFPLANESATTACKING": 5}, {"TGTLOCATION": "BOULAY", "COUNTRY": "UK", "LONGITUDE": 2.202988, "TGTCOUNTRY": "FRANCE", "MSNDATE": "9/3/1918", "LATITUDE": 48.152448, "MDS": "HADLEY PAGE O/400", "NUMBEROFPLANESATTACKING": 28}, {"TGTLOCATION": "MORHANQE", "COUNTRY": "UK", "LONGITUDE": 6.6363888, "TGTCOUNTRY": "FRANCE", "MSNDATE": "9/3/1918", "LATITUDE": 48.924444, "MDS": "HADLEY PAGE O/400", "NUMBEROFPLANESATTACKING": 23}, {"TGTLOCATION": "MORHANGE", "COUNTRY": "UK", "LONGITUDE": 6.6363888, "TGTCOUNTRY": "FRANCE", "MSNDATE": "9/3/1918", "LATITUDE": 48.924444, "MDS": "HADLEY PAGE O/400", "NUMBEROFPLANESATTACKING": 14}, {"TGTLOCATION": "MORHANGE, BOULAY", "COUNTRY": "UK", "LONGITUDE": 6.6363888, "TGTCOUNTRY": "FRANCE", "MSNDATE": "9/3/1918", "LATITUDE": 48.924444, "MDS": "HADLEY PAGE O/400", "NUMBEROFPLANESATTACKING": 34}, {"TGTLOCATION": "CONFLANS", "COUNTRY": "USA", "LONGITUDE": 5.883966, "TGTCOUNTRY": "FRANCE", "MSNDATE": "9/4/1918", "LATITUDE": 49.168628, "MDS": "BREGUET 14 B2", "NUMBEROFPLANESATTACKING": 35}, {"TGTLOCATION": "CONFLANS", "COUNTRY": "USA", "LONGITUDE": 5.883966, "TGTCOUNTRY": "FRANCE", "MSNDATE": "9/4/1918", "LATITUDE": 49.168628, "MDS": "BREGUET 14 B2", "NUMBEROFPLANESATTACKING": 35}, {"TGTLOCATION": "BUHL", "COUNTRY": "UK", "LONGITUDE": 8.007115, "TGTCOUNTRY": "FRANCE", "MSNDATE": "9/4/1918", "LATITUDE": 48.915636, "MDS": "AIRCO DH4 DAY BOMBER", "NUMBEROFPLANESATTACKING": 36}, {"TGTLOCATION": "MORHANGE", "COUNTRY": "UK", "LONGITUDE": 6.6363888, "TGTCOUNTRY": "FRANCE", "MSNDATE": "9/4/1918", "LATITUDE": 48.924444, "MDS": "AIRCO DH9 DAY BOMBER", "NUMBEROFPLANESATTACKING": 3}, {"TGTLOCATION": "MORHANGE", "COUNTRY": "UK", "LONGITUDE": 6.6363888, "TGTCOUNTRY": "FRANCE", "MSNDATE": "9/4/1918", "LATITUDE": 48.924444, "MDS": "AIRCO DH9 DAY BOMBER", "NUMBEROFPLANESATTACKING": 6}, {"TGTLOCATION": "LORQUIN", "COUNTRY": "UK", "LONGITUDE": 6.994674, "TGTCOUNTRY": "FRANCE", "MSNDATE": "9/6/1918", "LATITUDE": 48.668822, "MDS": "HADLEY PAGE O/400", "NUMBEROFPLANESATTACKING": 2}, {"TGTLOCATION": "LELLINGEN", "COUNTRY": "UK", "LONGITUDE": "", "TGTCOUNTRY": "FRANCE", "MSNDATE": "9/6/1918", "LATITUDE": "", "MDS": "HADLEY PAGE O/400", "NUMBEROFPLANESATTACKING": 2}, {"TGTLOCATION": "LORQUIN", "COUNTRY": "UK", "LONGITUDE": 6.994674, "TGTCOUNTRY": "FRANCE", "MSNDATE": "9/6/1918", "LATITUDE": 48.668822, "MDS": "HADLEY PAGE O/400", "NUMBEROFPLANESATTACKING": 14}, {"TGTLOCATION": "EHRANG", "COUNTRY": "UK", "LONGITUDE": 6.695214, "TGTCOUNTRY": "GERMANY", "MSNDATE": "9/7/1918", "LATITUDE": 49.815713, "MDS": "AIRCO DH4 DAY BOMBER", "NUMBEROFPLANESATTACKING": 33}, {"TGTLOCATION": "LUDWIGSHAFEN", "COUNTRY": "UK", "LONGITUDE": 8.435278, "TGTCOUNTRY": "GERMANY", "MSNDATE": "9/7/1918", "LATITUDE": 49.481111, "MDS": "AIRCO DH9 DAY BOMBER", "NUMBEROFPLANESATTACKING": 4}, {"TGTLOCATION": "MANNHEIM", "COUNTRY": "UK", "LONGITUDE": 8.464722, "TGTCOUNTRY": "GERMANY", "MSNDATE": "9/7/1918", "LATITUDE": 49.488333, "MDS": "AIRCO DH9 DAY BOMBER", "NUMBEROFPLANESATTACKING": 3}, {"TGTLOCATION": "BUXIERES", "COUNTRY": "USA", "LONGITUDE": 5.672141, "TGTCOUNTRY": "FRANCE", "MSNDATE": "9/12/1918", "LATITUDE": 48.912232, "MDS": "BREGUET 14 B2", "NUMBEROFPLANESATTACKING": 1}, {"TGTLOCATION": "BUXIERES", "COUNTRY": "USA", "LONGITUDE": 5.672141, "TGTCOUNTRY": "FRANCE", "MSNDATE": "9/12/1918", "LATITUDE": 48.912232, "MDS": "BREGUET 14 B2", "NUMBEROFPLANESATTACKING": 1}, {"TGTLOCATION": "BUXERULLES", "COUNTRY": "USA", "LONGITUDE": 5.665649, "TGTCOUNTRY": "FRANCE", "MSNDATE": "9/12/1918", "LATITUDE": 48.906572, "MDS": "BREGUET 14 B2", "NUMBEROFPLANESATTACKING": 36}, {"TGTLOCATION": "BUXERULLES", "COUNTRY": "USA", "LONGITUDE": 5.665649, "TGTCOUNTRY": "FRANCE", "MSNDATE": "9/12/1918", "LATITUDE": 48.906572, "MDS": "BREGUET 14 B2", "NUMBEROFPLANESATTACKING": 36}, {"TGTLOCATION": "VIGNEULLES", "COUNTRY": "USA", "LONGITUDE": 6.330722, "TGTCOUNTRY": "FRANCE", "MSNDATE": "9/12/1918", "LATITUDE": 48.56165, "MDS": "BREGUET 14 B2", "NUMBEROFPLANESATTACKING": 31}, {"TGTLOCATION": "VIGNEULLES", "COUNTRY": "USA", "LONGITUDE": 6.330722, "TGTCOUNTRY": "FRANCE", "MSNDATE": "9/12/1918", "LATITUDE": 48.56165, "MDS": "BREGUET 14 B2", "NUMBEROFPLANESATTACKING": 31}, {"TGTLOCATION": "COURCELLES, ORNY, VERNY", "COUNTRY": "UK", "LONGITUDE": 6.308383, "TGTCOUNTRY": "FRANCE", "MSNDATE": "9/12/1918", "LATITUDE": 49.066651, "MDS": "AIRCO DH9 DAY BOMBER", "NUMBEROFPLANESATTACKING": 33}, {"TGTLOCATION": "CHAMPEY", "COUNTRY": "UK", "LONGITUDE": 6.05805, "TGTCOUNTRY": "FRANCE", "MSNDATE": "9/12/1918", "LATITUDE": 48.957439, "MDS": "AIRCO DH9 DAY BOMBER", "NUMBEROFPLANESATTACKING": 14}, {"TGTLOCATION": "METZ-SABLON, COURCELLES", "COUNTRY": "UK", "LONGITUDE": 6.175875, "TGTCOUNTRY": "FRANCE", "MSNDATE": "9/12/1918", "LATITUDE": 49.115461, "MDS": "HADLEY PAGE O/400", "NUMBEROFPLANESATTACKING": 14}, {"TGTLOCATION": "METZ-SABLON", "COUNTRY": "UK", "LONGITUDE": 6.175875, "TGTCOUNTRY": "FRANCE", "MSNDATE": "9/12/1918", "LATITUDE": 49.115461, "MDS": "HADLEY PAGE O/400", "NUMBEROFPLANESATTACKING": 2}, {"TGTLOCATION": "METZ-SABLON", "COUNTRY": "UK", "LONGITUDE": 6.175875, "TGTCOUNTRY": "FRANCE", "MSNDATE": "9/12/1918", "LATITUDE": 49.115461, "MDS": "HADLEY PAGE O/400", "NUMBEROFPLANESATTACKING": 2}, {"TGTLOCATION": "METZ-SABLON", "COUNTRY": "UK", "LONGITUDE": 6.175875, "TGTCOUNTRY": "FRANCE", "MSNDATE": "9/12/1918", "LATITUDE": 49.115461, "MDS": "HADLEY PAGE O/400", "NUMBEROFPLANESATTACKING": 28}, {"TGTLOCATION": "ENEMY TROOPS RETREATING FROM VIGNEULLES AND CHAMBLEY", "COUNTRY": "USA", "LONGITUDE": "", "TGTCOUNTRY": "FRANCE", "MSNDATE": "9/12/1918", "LATITUDE": "", "MDS": "SPAD XIII", "NUMBEROFPLANESATTACKING": ""}, {"TGTLOCATION": "", "COUNTRY": "FRANCE", "LONGITUDE": "", "TGTCOUNTRY": "FRANCE", "MSNDATE": "9/12/1918", "LATITUDE": "", "MDS": "BREGUET 14 B2", "NUMBEROFPLANESATTACKING": 21}, {"TGTLOCATION": "CHAMBLEY", "COUNTRY": "USA", "LONGITUDE": 5.898896, "TGTCOUNTRY": "FRANCE", "MSNDATE": "9/13/1918", "LATITUDE": 49.048236, "MDS": "BREGUET 14 B2", "NUMBEROFPLANESATTACKING": 23}, {"TGTLOCATION": "ORNY, ARNAVILLE, MT PARK", "COUNTRY": "UK", "LONGITUDE": 6.03683, "TGTCOUNTRY": "FRANCE", "MSNDATE": "9/13/1918", "LATITUDE": 49.011182, "MDS": "AIRCO DH9 DAY BOMBER", "NUMBEROFPLANESATTACKING": 10}, {"TGTLOCATION": "METZ-SABLON, ARNAVILLE, MARS, ORLY", "COUNTRY": "UK", "LONGITUDE": 6.175875, "TGTCOUNTRY": "FRANCE", "MSNDATE": "9/13/1918", "LATITUDE": 49.115461, "MDS": "AIRCO DH9 DAY BOMBER", "NUMBEROFPLANESATTACKING": 7}, {"TGTLOCATION": "COURCELLES", "COUNTRY": "UK", "LONGITUDE": 6.308383, "TGTCOUNTRY": "FRANCE", "MSNDATE": "9/13/1918", "LATITUDE": 49.066651, "MDS": "HADLEY PAGE O/400", "NUMBEROFPLANESATTACKING": 14}, {"TGTLOCATION": "COURCELLES", "COUNTRY": "UK", "LONGITUDE": 6.308383, "TGTCOUNTRY": "FRANCE", "MSNDATE": "9/13/1918", "LATITUDE": 49.066651, "MDS": "HADLEY PAGE O/400", "NUMBEROFPLANESATTACKING": 14}, {"TGTLOCATION": "ATTACKS MADE ON DONCOURT, JAULNY, AND OLLEY", "COUNTRY": "FRANCE", "LONGITUDE": "", "TGTCOUNTRY": "FRANCE", "MSNDATE": "9/13/1918", "LATITUDE": "", "MDS": "BREGUET 14 B2", "NUMBEROFPLANESATTACKING": ""}, {"TGTLOCATION": "CONFLANS", "COUNTRY": "USA", "LONGITUDE": 5.86912, "TGTCOUNTRY": "FRANCE", "MSNDATE": "9/14/1918", "LATITUDE": 49.166116, "MDS": "BREGUET 14 B2", "NUMBEROFPLANESATTACKING": 23}, {"TGTLOCATION": "CONFLANS", "COUNTRY": "USA", "LONGITUDE": 5.86912, "TGTCOUNTRY": "FRANCE", "MSNDATE": "9/14/1918", "LATITUDE": 49.166116, "MDS": "BREGUET 14 B2", "NUMBEROFPLANESATTACKING": 23}, {"TGTLOCATION": "CONFLANS", "COUNTRY": "USA", "LONGITUDE": 5.86912, "TGTCOUNTRY": "FRANCE", "MSNDATE": "9/14/1918", "LATITUDE": 49.166116, "MDS": "BREGUET 14 B2", "NUMBEROFPLANESATTACKING": 23}, {"TGTLOCATION": "CONFLANS", "COUNTRY": "USA", "LONGITUDE": 5.86912, "TGTCOUNTRY": "FRANCE", "MSNDATE": "9/14/1918", "LATITUDE": 49.166116, "MDS": "BREGUET 14 B2", "NUMBEROFPLANESATTACKING": 23}, {"TGTLOCATION": "CONFLANS", "COUNTRY": "USA", "LONGITUDE": 5.5184, "TGTCOUNTRY": "FRANCE", "MSNDATE": "9/14/1918", "LATITUDE": 49.9892, "MDS": "BREGUET 14 B2", "NUMBEROFPLANESATTACKING": 34}, {"TGTLOCATION": "CONFLANS", "COUNTRY": "USA", "LONGITUDE": 5.5184, "TGTCOUNTRY": "FRANCE", "MSNDATE": "9/14/1918", "LATITUDE": 49.9892, "MDS": "LIBERTY DH 4", "NUMBEROFPLANESATTACKING": 35}, {"TGTLOCATION": "ETAIN", "COUNTRY": "USA", "LONGITUDE": 5.640218, "TGTCOUNTRY": "FRANCE", "MSNDATE": "9/14/1918", "LATITUDE": 49.212586, "MDS": "BREGUET 14 B2", "NUMBEROFPLANESATTACKING": 33}, {"TGTLOCATION": "ETAIN", "COUNTRY": "USA", "LONGITUDE": 5.640218, "TGTCOUNTRY": "FRANCE", "MSNDATE": "9/14/1918", "LATITUDE": 49.212586, "MDS": "BREGUET 14 B2", "NUMBEROFPLANESATTACKING": 33}, {"TGTLOCATION": "ETAIN", "COUNTRY": "USA", "LONGITUDE": 5.640218, "TGTCOUNTRY": "FRANCE", "MSNDATE": "9/14/1918", "LATITUDE": 49.212586, "MDS": "BREGUET 14 B2", "NUMBEROFPLANESATTACKING": 33}, {"TGTLOCATION": "ETAIN", "COUNTRY": "USA", "LONGITUDE": 5.640218, "TGTCOUNTRY": "FRANCE", "MSNDATE": "9/14/1918", "LATITUDE": 49.212586, "MDS": "BREGUET 14 B2", "NUMBEROFPLANESATTACKING": 33}, {"TGTLOCATION": "VITTONVILLE AND ARNAVILLE", "COUNTRY": "USA", "LONGITUDE": 6.057756, "TGTCOUNTRY": "FRANCE", "MSNDATE": "9/14/1918", "LATITUDE": 48.964999, "MDS": "BREGUET 14 B2", "NUMBEROFPLANESATTACKING": 35}, {"TGTLOCATION": "DOMMARY-BARONCOURT", "COUNTRY": "USA", "LONGITUDE": 5.42104, "TGTCOUNTRY": "FRANCE", "MSNDATE": "9/14/1918", "LATITUDE": 49.16957, "MDS": "LIBERTY DH 4", "NUMBEROFPLANESATTACKING": 23}, {"TGTLOCATION": "VITTONVILLE AND ARNAVILLE", "COUNTRY": "USA", "LONGITUDE": 6.057756, "TGTCOUNTRY": "FRANCE", "MSNDATE": "9/14/1918", "LATITUDE": 48.964999, "MDS": "BREGUET 14 B2", "NUMBEROFPLANESATTACKING": 28}, {"TGTLOCATION": "VITTONVILLE AND ARNAVILLE", "COUNTRY": "USA", "LONGITUDE": 6.057756, "TGTCOUNTRY": "FRANCE", "MSNDATE": "9/14/1918", "LATITUDE": 48.964999, "MDS": "BREGUET 14 B2", "NUMBEROFPLANESATTACKING": 28}, {"TGTLOCATION": "VITTONVILLE AND ARNAVILLE", "COUNTRY": "USA", "LONGITUDE": 6.057756, "TGTCOUNTRY": "FRANCE", "MSNDATE": "9/14/1918", "LATITUDE": 48.964999, "MDS": "BREGUET 14 B2", "NUMBEROFPLANESATTACKING": 28}, {"TGTLOCATION": "VITTONVILLE AND ARNAVILLE", "COUNTRY": "USA", "LONGITUDE": 6.057756, "TGTCOUNTRY": "FRANCE", "MSNDATE": "9/14/1918", "LATITUDE": 48.964999, "MDS": "BREGUET 14 B2", "NUMBEROFPLANESATTACKING": 28}, {"TGTLOCATION": "GORZE", "COUNTRY": "USA", "LONGITUDE": 5.59701, "TGTCOUNTRY": "FRANCE", "MSNDATE": "9/14/1918", "LATITUDE": 49.3338, "MDS": "LIBERTY DH 4", "NUMBEROFPLANESATTACKING": 35}, {"TGTLOCATION": "GORZE", "COUNTRY": "USA", "LONGITUDE": 5.59701, "TGTCOUNTRY": "FRANCE", "MSNDATE": "9/14/1918", "LATITUDE": 49.3338, "MDS": "LIBERTY DH 4", "NUMBEROFPLANESATTACKING": 35}, {"TGTLOCATION": "EHRANG", "COUNTRY": "UK", "LONGITUDE": 6.695214, "TGTCOUNTRY": "GERMANY", "MSNDATE": "9/14/1918", "LATITUDE": 49.815713, "MDS": "AIRCO DH4 DAY BOMBER", "NUMBEROFPLANESATTACKING": 4}, {"TGTLOCATION": "METZ-SABLON, BUHL", "COUNTRY": "UK", "LONGITUDE": 6.175875, "TGTCOUNTRY": "FRANCE", "MSNDATE": "9/14/1918", "LATITUDE": 49.115461, "MDS": "AIRCO DH9 DAY BOMBER", "NUMBEROFPLANESATTACKING": 12}, {"TGTLOCATION": "METZ-SABLON", "COUNTRY": "UK", "LONGITUDE": 6.175875, "TGTCOUNTRY": "FRANCE", "MSNDATE": "9/14/1918", "LATITUDE": 49.115461, "MDS": "AIRCO DH9 DAY BOMBER", "NUMBEROFPLANESATTACKING": 10}, {"TGTLOCATION": "BOULAY", "COUNTRY": "UK", "LONGITUDE": 2.202988, "TGTCOUNTRY": "FRANCE", "MSNDATE": "9/14/1918", "LATITUDE": 48.152448, "MDS": "AIRCO DH9A DAY BOMBER", "NUMBEROFPLANESATTACKING": 33}, {"TGTLOCATION": "METZ-SABLON, KAISERN, COURCELLES", "COUNTRY": "UK", "LONGITUDE": 6.175875, "TGTCOUNTRY": "FRANCE", "MSNDATE": "9/14/1918", "LATITUDE": 49.115461, "MDS": "HADLEY PAGE O/400", "NUMBEROFPLANESATTACKING": 36}, {"TGTLOCATION": "METZ-SABLON, BOULAY", "COUNTRY": "UK", "LONGITUDE": 6.175875, "TGTCOUNTRY": "FRANCE", "MSNDATE": "9/14/1918", "LATITUDE": 49.115461, "MDS": "HADLEY PAGE O/400", "NUMBEROFPLANESATTACKING": 23}, {"TGTLOCATION": "EHRANG, KAISERN, COURCELLES", "COUNTRY": "UK", "LONGITUDE": 6.695214, "TGTCOUNTRY": "GERMANY", "MSNDATE": "9/14/1918", "LATITUDE": 49.815713, "MDS": "HADLEY PAGE O/400", "NUMBEROFPLANESATTACKING": 36}, {"TGTLOCATION": "COURCELLES, SAARBURG, METZ-SABLON, FRESCATY", "COUNTRY": "UK", "LONGITUDE": 6.308383, "TGTCOUNTRY": "FRANCE", "MSNDATE": "9/14/1918", "LATITUDE": 49.066651, "MDS": "HADLEY PAGE O/400", "NUMBEROFPLANESATTACKING": 35}, {"TGTLOCATION": "CONFLANS", "COUNTRY": "FRANCE", "LONGITUDE": "", "TGTCOUNTRY": "FRANCE", "MSNDATE": "9/14/1918", "LATITUDE": "", "MDS": "CAPRONI", "NUMBEROFPLANESATTACKING": 28}, {"TGTLOCATION": "VALLEY OF THE MAD, BETWEEN CONFLANS AND MARS-LE-TOUR, AND CHAMBLEY", "COUNTRY": "USA", "LONGITUDE": "", "TGTCOUNTRY": "FRANCE", "MSNDATE": "9/14/1918", "LATITUDE": "", "MDS": "SPAD XIII", "NUMBEROFPLANESATTACKING": ""}, {"TGTLOCATION": "CONVOYS AND TROOP CONCENTRATIONS ON IMMEDIATE REAR OF ENEMY LINES", "COUNTRY": "FRANCE", "LONGITUDE": "", "TGTCOUNTRY": "FRANCE", "MSNDATE": "9/14/1918", "LATITUDE": "", "MDS": "BREGUET 14 B2", "NUMBEROFPLANESATTACKING": ""}, {"TGTLOCATION": "ARNAVILLE", "COUNTRY": "USA", "LONGITUDE": 6.030617, "TGTCOUNTRY": "FRANCE", "MSNDATE": "9/15/1918", "LATITUDE": 49.011487, "MDS": "", "NUMBEROFPLANESATTACKING": 1}, {"TGTLOCATION": "ARNAVILLE", "COUNTRY": "USA", "LONGITUDE": 6.030617, "TGTCOUNTRY": "FRANCE", "MSNDATE": "9/15/1918", "LATITUDE": 49.011487, "MDS": "BREGUET 14 B2", "NUMBEROFPLANESATTACKING": 33}, {"TGTLOCATION": "ARNAVILLE", "COUNTRY": "USA", "LONGITUDE": 6.030617, "TGTCOUNTRY": "FRANCE", "MSNDATE": "9/15/1918", "LATITUDE": 49.011487, "MDS": "BREGUET 14 B2", "NUMBEROFPLANESATTACKING": 33}, {"TGTLOCATION": "ARNAVILLE", "COUNTRY": "USA", "LONGITUDE": 6.030617, "TGTCOUNTRY": "FRANCE", "MSNDATE": "9/15/1918", "LATITUDE": 49.011487, "MDS": "BREGUET 14 B2", "NUMBEROFPLANESATTACKING": 33}, {"TGTLOCATION": "ARNAVILLE", "COUNTRY": "USA", "LONGITUDE": 6.030617, "TGTCOUNTRY": "FRANCE", "MSNDATE": "9/15/1918", "LATITUDE": 49.011487, "MDS": "BREGUET 14 B2", "NUMBEROFPLANESATTACKING": 33}, {"TGTLOCATION": "ARNAVILLE", "COUNTRY": "USA", "LONGITUDE": 6.030617, "TGTCOUNTRY": "FRANCE", "MSNDATE": "9/15/1918", "LATITUDE": 49.011487, "MDS": "BREGUET 14 B2", "NUMBEROFPLANESATTACKING": 33}, {"TGTLOCATION": "BAYONVILLE-SUR-MAD", "COUNTRY": "USA", "LONGITUDE": 5.990155, "TGTCOUNTRY": "FRANCE", "MSNDATE": "9/15/1918", "LATITUDE": 49.01514, "MDS": "LIBERTY DH 4", "NUMBEROFPLANESATTACKING": 28}, {"TGTLOCATION": "BAYONVILLE-SUR-MAD", "COUNTRY": "USA", "LONGITUDE": 5.990155, "TGTCOUNTRY": "FRANCE", "MSNDATE": "9/15/1918", "LATITUDE": 49.01514, "MDS": "LIBERTY DH 4", "NUMBEROFPLANESATTACKING": 28}, {"TGTLOCATION": "LONGUYON", "COUNTRY": "USA", "LONGITUDE": 5.612335, "TGTCOUNTRY": "FRANCE", "MSNDATE": "9/15/1918", "LATITUDE": 49.440654, "MDS": "BREGUET 14 B2", "NUMBEROFPLANESATTACKING": 28}, {"TGTLOCATION": "LONGUYON", "COUNTRY": "USA", "LONGITUDE": 5.612335, "TGTCOUNTRY": "FRANCE", "MSNDATE": "9/15/1918", "LATITUDE": 49.440654, "MDS": "BREGUET 14 B2", "NUMBEROFPLANESATTACKING": 28}, {"TGTLOCATION": "LONGUYON", "COUNTRY": "USA", "LONGITUDE": 5.612335, "TGTCOUNTRY": "FRANCE", "MSNDATE": "9/15/1918", "LATITUDE": 49.440654, "MDS": "BREGUET 14 B2", "NUMBEROFPLANESATTACKING": 28}, {"TGTLOCATION": "LONGUYON", "COUNTRY": "USA", "LONGITUDE": 5.612335, "TGTCOUNTRY": "FRANCE", "MSNDATE": "9/15/1918", "LATITUDE": 49.440654, "MDS": "BREGUET 14 B2", "NUMBEROFPLANESATTACKING": 28}, {"TGTLOCATION": "LONGUYON", "COUNTRY": "USA", "LONGITUDE": 5.612335, "TGTCOUNTRY": "FRANCE", "MSNDATE": "9/15/1918", "LATITUDE": 49.440654, "MDS": "", "NUMBEROFPLANESATTACKING": 36}, {"TGTLOCATION": "LONGUYON", "COUNTRY": "USA", "LONGITUDE": 5.612335, "TGTCOUNTRY": "FRANCE", "MSNDATE": "9/15/1918", "LATITUDE": 49.440654, "MDS": "", "NUMBEROFPLANESATTACKING": 36}, {"TGTLOCATION": "LONGUYON", "COUNTRY": "USA", "LONGITUDE": 5.600987, "TGTCOUNTRY": "FRANCE", "MSNDATE": "9/15/1918", "LATITUDE": 49.446035, "MDS": "LIBERTY DH 4", "NUMBEROFPLANESATTACKING": ""}, {"TGTLOCATION": "LONGUYON", "COUNTRY": "USA", "LONGITUDE": 5.600987, "TGTCOUNTRY": "FRANCE", "MSNDATE": "9/15/1918", "LATITUDE": 49.446035, "MDS": "LIBERTY DH 4", "NUMBEROFPLANESATTACKING": ""}, {"TGTLOCATION": "STUTTGART", "COUNTRY": "UK", "LONGITUDE": 9.183333, "TGTCOUNTRY": "GERMANY", "MSNDATE": "9/15/1918", "LATITUDE": 48.766667, "MDS": "AIRCO DH4 DAY BOMBER", "NUMBEROFPLANESATTACKING": 36}, {"TGTLOCATION": "METZ-SABLON", "COUNTRY": "UK", "LONGITUDE": 6.175875, "TGTCOUNTRY": "FRANCE", "MSNDATE": "9/15/1918", "LATITUDE": 49.115461, "MDS": "AIRCO DH9 DAY BOMBER", "NUMBEROFPLANESATTACKING": 6}, {"TGTLOCATION": "METZ-SABLON", "COUNTRY": "UK", "LONGITUDE": 6.175875, "TGTCOUNTRY": "FRANCE", "MSNDATE": "9/15/1918", "LATITUDE": 49.115461, "MDS": "AIRCO DH9 DAY BOMBER", "NUMBEROFPLANESATTACKING": 5}, {"TGTLOCATION": "BUHL", "COUNTRY": "UK", "LONGITUDE": 8.007115, "TGTCOUNTRY": "FRANCE", "MSNDATE": "9/15/1918", "LATITUDE": 48.915636, "MDS": "AIRCO DH9A DAY BOMBER", "NUMBEROFPLANESATTACKING": 3}, {"TGTLOCATION": "LORQUIN, MORN, MAINZ", "COUNTRY": "UK", "LONGITUDE": 6.994674, "TGTCOUNTRY": "GERMANY", "MSNDATE": "9/15/1918", "LATITUDE": 48.668822, "MDS": "HADLEY PAGE O/400", "NUMBEROFPLANESATTACKING": 36}, {"TGTLOCATION": "LORQUIN, BUHL, SAARBURG", "COUNTRY": "UK", "LONGITUDE": 6.994674, "TGTCOUNTRY": "GERMANY", "MSNDATE": "9/15/1918", "LATITUDE": 48.668822, "MDS": "HADLEY PAGE O/400", "NUMBEROFPLANESATTACKING": 31}, {"TGTLOCATION": "BUHL, KARLSRUHE", "COUNTRY": "UK", "LONGITUDE": 8.007115, "TGTCOUNTRY": "FRANCE", "MSNDATE": "9/15/1918", "LATITUDE": 48.915636, "MDS": "HADLEY PAGE O/400", "NUMBEROFPLANESATTACKING": 31}, {"TGTLOCATION": "KARLSRUHE, MORHANGE, METZ-SABLON", "COUNTRY": "UK", "LONGITUDE": 8.4037563, "TGTCOUNTRY": "GERMANY", "MSNDATE": "9/15/1918", "LATITUDE": 49.0080848, "MDS": "HADLEY PAGE O/400", "NUMBEROFPLANESATTACKING": 33}, {"TGTLOCATION": "LONGOYON,  DOMMARY BARONCOURT, CONDFLANS, ADUN-LE-ROMAN", "COUNTRY": "FRANCE", "LONGITUDE": "", "TGTCOUNTRY": "FRANCE", "MSNDATE": "9/15/1918", "LATITUDE": "", "MDS": "CAPRONI", "NUMBEROFPLANESATTACKING": 15}, {"TGTLOCATION": "LONGUYON", "COUNTRY": "USA", "LONGITUDE": 5.600987, "TGTCOUNTRY": "FRANCE", "MSNDATE": "9/16/1918", "LATITUDE": 49.446035, "MDS": "", "NUMBEROFPLANESATTACKING": 28}, {"TGTLOCATION": "LONGUYON", "COUNTRY": "USA", "LONGITUDE": 5.600987, "TGTCOUNTRY": "FRANCE", "MSNDATE": "9/16/1918", "LATITUDE": 49.446035, "MDS": "LIBERTY DH 4", "NUMBEROFPLANESATTACKING": 2}, {"TGTLOCATION": "CONFLANS", "COUNTRY": "USA", "LONGITUDE": 5.89315, "TGTCOUNTRY": "FRANCE", "MSNDATE": "9/16/1918", "LATITUDE": 49.16452, "MDS": "BREGUET 14 B2", "NUMBEROFPLANESATTACKING": 33}, {"TGTLOCATION": "CONFLANS", "COUNTRY": "USA", "LONGITUDE": 5.89315, "TGTCOUNTRY": "FRANCE", "MSNDATE": "9/16/1918", "LATITUDE": 49.16452, "MDS": "BREGUET 14 B2", "NUMBEROFPLANESATTACKING": 33}, {"TGTLOCATION": "CONFLANS", "COUNTRY": "USA", "LONGITUDE": 5.89315, "TGTCOUNTRY": "FRANCE", "MSNDATE": "9/16/1918", "LATITUDE": 49.16452, "MDS": "BREGUET 14 B2", "NUMBEROFPLANESATTACKING": 33}, {"TGTLOCATION": "CONFLANS", "COUNTRY": "USA", "LONGITUDE": 5.89315, "TGTCOUNTRY": "FRANCE", "MSNDATE": "9/16/1918", "LATITUDE": 49.16452, "MDS": "BREGUET 14 B2", "NUMBEROFPLANESATTACKING": 33}, {"TGTLOCATION": "CONFLANS", "COUNTRY": "USA", "LONGITUDE": 5.872321129, "TGTCOUNTRY": "FRANCE", "MSNDATE": "9/16/1918", "LATITUDE": 49.1641817, "MDS": "LIBERTY DH 4", "NUMBEROFPLANESATTACKING": 31}, {"TGTLOCATION": "CONFLANS", "COUNTRY": "USA", "LONGITUDE": 5.872321129, "TGTCOUNTRY": "FRANCE", "MSNDATE": "9/16/1918", "LATITUDE": 49.1641817, "MDS": "LIBERTY DH 4", "NUMBEROFPLANESATTACKING": 2}, {"TGTLOCATION": "CONFLANS", "COUNTRY": "USA", "LONGITUDE": 5.872321129, "TGTCOUNTRY": "FRANCE", "MSNDATE": "9/16/1918", "LATITUDE": 49.1641817, "MDS": "LIBERTY DH 4", "NUMBEROFPLANESATTACKING": 2}, {"TGTLOCATION": "CONFLANS/HANNONVILLE", "COUNTRY": "USA", "LONGITUDE": 5.848631, "TGTCOUNTRY": "FRANCE", "MSNDATE": "9/16/1918", "LATITUDE": 49.16768, "MDS": "BREGUET 14 B2", "NUMBEROFPLANESATTACKING": 31}, {"TGTLOCATION": "CONFLANS/HANNONVILLE", "COUNTRY": "USA", "LONGITUDE": 5.848631, "TGTCOUNTRY": "FRANCE", "MSNDATE": "9/16/1918", "LATITUDE": 49.16768, "MDS": "BREGUET 14 B2", "NUMBEROFPLANESATTACKING": 31}, {"TGTLOCATION": "CONFLANS/HANNONVILLE", "COUNTRY": "USA", "LONGITUDE": 5.848631, "TGTCOUNTRY": "FRANCE", "MSNDATE": "9/16/1918", "LATITUDE": 49.16768, "MDS": "BREGUET 14 B2", "NUMBEROFPLANESATTACKING": 31}, {"TGTLOCATION": "CONFLANS/HANNONVILLE", "COUNTRY": "USA", "LONGITUDE": 5.848631, "TGTCOUNTRY": "FRANCE", "MSNDATE": "9/16/1918", "LATITUDE": 49.16768, "MDS": "BREGUET 14 B2", "NUMBEROFPLANESATTACKING": 31}, {"TGTLOCATION": "MANNHEIM", "COUNTRY": "UK", "LONGITUDE": 8.464722, "TGTCOUNTRY": "GERMANY", "MSNDATE": "9/16/1918", "LATITUDE": 49.488333, "MDS": "AIRCO DH4 DAY BOMBER", "NUMBEROFPLANESATTACKING": 31}, {"TGTLOCATION": "HAGENAU", "COUNTRY": "UK", "LONGITUDE": 7.79125, "TGTCOUNTRY": "GERMANY", "MSNDATE": "9/16/1918", "LATITUDE": 48.813288, "MDS": "AIRCO DH9 DAY BOMBER", "NUMBEROFPLANESATTACKING": 4}, {"TGTLOCATION": "MANNHEIM", "COUNTRY": "UK", "LONGITUDE": 8.464722, "TGTCOUNTRY": "GERMANY", "MSNDATE": "9/16/1918", "LATITUDE": 49.488333, "MDS": "AIRCO DH9A DAY BOMBER", "NUMBEROFPLANESATTACKING": 4}, {"TGTLOCATION": "FRANKFURT, LORQUIN, FRESCATY", "COUNTRY": "UK", "LONGITUDE": 8.6806154, "TGTCOUNTRY": "GERMANY", "MSNDATE": "9/16/1918", "LATITUDE": 50.1114451, "MDS": "HADLEY PAGE O/400", "NUMBEROFPLANESATTACKING": 23}, {"TGTLOCATION": "FRESCATY", "COUNTRY": "UK", "LONGITUDE": 6.175875, "TGTCOUNTRY": "FRANCE", "MSNDATE": "9/16/1918", "LATITUDE": 49.115461, "MDS": "HADLEY PAGE O/400", "NUMBEROFPLANESATTACKING": 2}, {"TGTLOCATION": "METZ-SABLON", "COUNTRY": "UK", "LONGITUDE": 6.175875, "TGTCOUNTRY": "FRANCE", "MSNDATE": "9/16/1918", "LATITUDE": 49.115461, "MDS": "HADLEY PAGE O/400", "NUMBEROFPLANESATTACKING": 33}, {"TGTLOCATION": "COLOGNE, FRESCATY. MANNHEIM", "COUNTRY": "UK", "LONGITUDE": 6.9599115, "TGTCOUNTRY": "GERMANY", "MSNDATE": "9/16/1918", "LATITUDE": 50.9406645, "MDS": "HADLEY PAGE O/400", "NUMBEROFPLANESATTACKING": ""}, {"TGTLOCATION": "5 LOCATIONS", "COUNTRY": "UK", "LONGITUDE": "", "TGTCOUNTRY": "", "MSNDATE": "9/16/1918", "LATITUDE": "", "MDS": "HADLEY PAGE O/400", "NUMBEROFPLANESATTACKING": 31}, {"TGTLOCATION": "CONFLANS", "COUNTRY": "FRANCE", "LONGITUDE": "", "TGTCOUNTRY": "FRANCE", "MSNDATE": "9/16/1918", "LATITUDE": "", "MDS": "CAPRONI", "NUMBEROFPLANESATTACKING": 25}, {"TGTLOCATION": "LONGUYON", "COUNTRY": "USA", "LONGITUDE": 5.593539, "TGTCOUNTRY": "FRANCE", "MSNDATE": "9/18/1918", "LATITUDE": 49.443539, "MDS": "BREGUET 14 B2", "NUMBEROFPLANESATTACKING": 34}, {"TGTLOCATION": "LONGUYON", "COUNTRY": "USA", "LONGITUDE": 5.593539, "TGTCOUNTRY": "FRANCE", "MSNDATE": "9/18/1918", "LATITUDE": 49.443539, "MDS": "BREGUET 14 B2", "NUMBEROFPLANESATTACKING": 34}, {"TGTLOCATION": "LONGUYON", "COUNTRY": "USA", "LONGITUDE": 5.593539, "TGTCOUNTRY": "FRANCE", "MSNDATE": "9/18/1918", "LATITUDE": 49.443539, "MDS": "BREGUET 14 B2", "NUMBEROFPLANESATTACKING": 34}, {"TGTLOCATION": "LONGUYON", "COUNTRY": "USA", "LONGITUDE": 5.593539, "TGTCOUNTRY": "FRANCE", "MSNDATE": "9/18/1918", "LATITUDE": 49.443539, "MDS": "BREGUET 14 B2", "NUMBEROFPLANESATTACKING": 34}, {"TGTLOCATION": "MARS-LA-TOUR", "COUNTRY": "USA", "LONGITUDE": 5.892534255, "TGTCOUNTRY": "FRANCE", "MSNDATE": "9/18/1918", "LATITUDE": 49.09837458, "MDS": "LIBERTY DH 4", "NUMBEROFPLANESATTACKING": 31}, {"TGTLOCATION": "LACHAUSSEE", "COUNTRY": "USA", "LONGITUDE": 5.819320679, "TGTCOUNTRY": "FRANCE", "MSNDATE": "9/18/1918", "LATITUDE": 49.03738967, "MDS": "", "NUMBEROFPLANESATTACKING": 33}, {"TGTLOCATION": "LACHAUSSEE", "COUNTRY": "USA", "LONGITUDE": 5.819320679, "TGTCOUNTRY": "FRANCE", "MSNDATE": "9/18/1918", "LATITUDE": 49.03738967, "MDS": "", "NUMBEROFPLANESATTACKING": 33}, {"TGTLOCATION": "BUHL, BOUL, KARLSRUHE", "COUNTRY": "UK", "LONGITUDE": 8.007115, "TGTCOUNTRY": "FRANCE", "MSNDATE": "9/20/1918", "LATITUDE": 48.915636, "MDS": "HADLEY PAGE O/400", "NUMBEROFPLANESATTACKING": 36}, {"TGTLOCATION": "MORHANQE, FONTENAY", "COUNTRY": "UK", "LONGITUDE": 6.6363888, "TGTCOUNTRY": "FRANCE", "MSNDATE": "9/20/1918", "LATITUDE": 48.924444, "MDS": "HADLEY PAGE O/400", "NUMBEROFPLANESATTACKING": 3}, {"TGTLOCATION": "FRESCATY", "COUNTRY": "UK", "LONGITUDE": 6.175875, "TGTCOUNTRY": "FRANCE", "MSNDATE": "9/20/1918", "LATITUDE": 49.115461, "MDS": "HADLEY PAGE O/400", "NUMBEROFPLANESATTACKING": 28}, {"TGTLOCATION": "MANNHEIM, KARLSRUHE, SAARBRUCKEN", "COUNTRY": "UK", "LONGITUDE": 8.464722, "TGTCOUNTRY": "GERMANY", "MSNDATE": "9/20/1918", "LATITUDE": 49.488333, "MDS": "HADLEY PAGE O/400", "NUMBEROFPLANESATTACKING": 23}, {"TGTLOCATION": "MANNHEIM, FRESCATY", "COUNTRY": "UK", "LONGITUDE": 8.464722, "TGTCOUNTRY": "GERMANY", "MSNDATE": "9/20/1918", "LATITUDE": 49.488333, "MDS": "HADLEY PAGE O/400", "NUMBEROFPLANESATTACKING": 34}, {"TGTLOCATION": "BUHL", "COUNTRY": "UK", "LONGITUDE": 8.007115, "TGTCOUNTRY": "FRANCE", "MSNDATE": "9/21/1918", "LATITUDE": 48.915636, "MDS": "HADLEY PAGE O/400", "NUMBEROFPLANESATTACKING": 33}, {"TGTLOCATION": "FRESCATY", "COUNTRY": "UK", "LONGITUDE": 6.175875, "TGTCOUNTRY": "FRANCE", "MSNDATE": "9/21/1918", "LATITUDE": 49.115461, "MDS": "HADLEY PAGE O/400", "NUMBEROFPLANESATTACKING": 23}, {"TGTLOCATION": "MORHANGE, LEININGEN", "COUNTRY": "UK", "LONGITUDE": 6.6363888, "TGTCOUNTRY": "FRANCE", "MSNDATE": "9/21/1918", "LATITUDE": 48.924444, "MDS": "HADLEY PAGE O/400", "NUMBEROFPLANESATTACKING": 23}, {"TGTLOCATION": "HAGENDINGEN", "COUNTRY": "UK", "LONGITUDE": 5.6653948, "TGTCOUNTRY": "GERMANY", "MSNDATE": "9/21/1918", "LATITUDE": 51.9691868, "MDS": "HADLEY PAGE O/400", "NUMBEROFPLANESATTACKING": 23}, {"TGTLOCATION": "ROMBACH", "COUNTRY": "UK", "LONGITUDE": 7.262372, "TGTCOUNTRY": "GERMANY", "MSNDATE": "9/21/1918", "LATITUDE": 48.283224, "MDS": "HADLEY PAGE O/400", "NUMBEROFPLANESATTACKING": 33}, {"TGTLOCATION": "KAISERSLAUTERN", "COUNTRY": "UK", "LONGITUDE": 7.7690041, "TGTCOUNTRY": "GERMANY", "MSNDATE": "9/25/1918", "LATITUDE": 49.4446997, "MDS": "AIRCO DH4 DAY BOMBER", "NUMBEROFPLANESATTACKING": 5}, {"TGTLOCATION": "BUHL", "COUNTRY": "UK", "LONGITUDE": 8.007115, "TGTCOUNTRY": "FRANCE", "MSNDATE": "9/25/1918", "LATITUDE": 48.915636, "MDS": "AIRCO DH9 DAY BOMBER", "NUMBEROFPLANESATTACKING": 31}, {"TGTLOCATION": "BUHL", "COUNTRY": "UK", "LONGITUDE": 8.007115, "TGTCOUNTRY": "FRANCE", "MSNDATE": "9/25/1918", "LATITUDE": 48.915636, "MDS": "AIRCO DH9 DAY BOMBER", "NUMBEROFPLANESATTACKING": 34}, {"TGTLOCATION": "FRANKFURT", "COUNTRY": "UK", "LONGITUDE": 8.6806154, "TGTCOUNTRY": "GERMANY", "MSNDATE": "9/25/1918", "LATITUDE": 50.1114451, "MDS": "AIRCO DH9A DAY BOMBER", "NUMBEROFPLANESATTACKING": 4}, {"TGTLOCATION": "LONGOYON,  DOMMARY BARONCOURT, CONDFLANS", "COUNTRY": "FRANCE", "LONGITUDE": "", "TGTCOUNTRY": "FRANCE", "MSNDATE": "9/25/1918", "LATITUDE": "", "MDS": "CAPRONI", "NUMBEROFPLANESATTACKING": 3}, {"TGTLOCATION": "LONGOYON,  DOMMARY BARONCOURT, CONDFLANS", "COUNTRY": "FRANCE", "LONGITUDE": "", "TGTCOUNTRY": "FRANCE", "MSNDATE": "9/25/1918", "LATITUDE": "", "MDS": "CAPRONI", "NUMBEROFPLANESATTACKING": 3}, {"TGTLOCATION": "DUN-SUR-MEUSE", "COUNTRY": "USA", "LONGITUDE": 5.184436, "TGTCOUNTRY": "FRANCE", "MSNDATE": "9/26/1918", "LATITUDE": 49.387969, "MDS": "LIBERTY DH 4", "NUMBEROFPLANESATTACKING": 7}, {"TGTLOCATION": "DUN-SUR-MEUSE", "COUNTRY": "USA", "LONGITUDE": 5.185866, "TGTCOUNTRY": "FRANCE", "MSNDATE": "9/26/1918", "LATITUDE": 49.383321, "MDS": "LIBERTY DH 4", "NUMBEROFPLANESATTACKING": 7}, {"TGTLOCATION": "DUN-SUR-MEUSE", "COUNTRY": "USA", "LONGITUDE": 5.184436, "TGTCOUNTRY": "FRANCE", "MSNDATE": "9/26/1918", "LATITUDE": 49.387969, "MDS": "", "NUMBEROFPLANESATTACKING": 2}, {"TGTLOCATION": "DUN-SUR-MEUSE", "COUNTRY": "USA", "LONGITUDE": 5.184436, "TGTCOUNTRY": "FRANCE", "MSNDATE": "9/26/1918", "LATITUDE": 49.387969, "MDS": "", "NUMBEROFPLANESATTACKING": 2}, {"TGTLOCATION": "DUN-SUR-MEUSE", "COUNTRY": "USA", "LONGITUDE": 5.184436, "TGTCOUNTRY": "FRANCE", "MSNDATE": "9/26/1918", "LATITUDE": 49.387969, "MDS": "BREGUET 14 B2", "NUMBEROFPLANESATTACKING": 33}, {"TGTLOCATION": "DUN-SUR-MEUSE", "COUNTRY": "USA", "LONGITUDE": 5.184436, "TGTCOUNTRY": "FRANCE", "MSNDATE": "9/26/1918", "LATITUDE": 49.387969, "MDS": "BREGUET 14 B2", "NUMBEROFPLANESATTACKING": 33}, {"TGTLOCATION": "DUN-SUR-MEUSE", "COUNTRY": "USA", "LONGITUDE": 5.184436, "TGTCOUNTRY": "FRANCE", "MSNDATE": "9/26/1918", "LATITUDE": 49.387969, "MDS": "BREGUET 14 B2", "NUMBEROFPLANESATTACKING": 33}, {"TGTLOCATION": "", "COUNTRY": "USA", "LONGITUDE": "", "TGTCOUNTRY": "", "MSNDATE": "9/26/1918", "LATITUDE": "", "MDS": "BREGUET 14 B2", "NUMBEROFPLANESATTACKING": 1}, {"TGTLOCATION": "ETAIN", "COUNTRY": "USA", "LONGITUDE": 5.640218, "TGTCOUNTRY": "FRANCE", "MSNDATE": "9/26/1918", "LATITUDE": 49.212586, "MDS": "", "NUMBEROFPLANESATTACKING": 35}, {"TGTLOCATION": "ETAIN", "COUNTRY": "USA", "LONGITUDE": 5.640218, "TGTCOUNTRY": "FRANCE", "MSNDATE": "9/26/1918", "LATITUDE": 49.212586, "MDS": "LIBERTY DH 4", "NUMBEROFPLANESATTACKING": 33}, {"TGTLOCATION": "AUDUN-LE-ROMAN", "COUNTRY": "UK", "LONGITUDE": 5.895641, "TGTCOUNTRY": "FRANCE", "MSNDATE": "9/26/1918", "LATITUDE": 49.368776, "MDS": "AIRCO DH4 DAY BOMBER", "NUMBEROFPLANESATTACKING": 33}, {"TGTLOCATION": "METZ-SABLON", "COUNTRY": "UK", "LONGITUDE": 6.175875, "TGTCOUNTRY": "FRANCE", "MSNDATE": "9/26/1918", "LATITUDE": 49.115461, "MDS": "AIRCO DH9 DAY BOMBER", "NUMBEROFPLANESATTACKING": 33}, {"TGTLOCATION": "METZ-SABLON", "COUNTRY": "UK", "LONGITUDE": 6.175875, "TGTCOUNTRY": "FRANCE", "MSNDATE": "9/26/1918", "LATITUDE": 49.115461, "MDS": "AIRCO DH9 DAY BOMBER", "NUMBEROFPLANESATTACKING": 36}, {"TGTLOCATION": "MEZIERES, METZ-SABLON", "COUNTRY": "UK", "LONGITUDE": 4.726096, "TGTCOUNTRY": "SWITZERLAND", "MSNDATE": "9/26/1918", "LATITUDE": 49.762085, "MDS": "HADLEY PAGE O/400", "NUMBEROFPLANESATTACKING": 31}, {"TGTLOCATION": "THIONVILLE. METZ-SABLON", "COUNTRY": "UK", "LONGITUDE": 6.167606, "TGTCOUNTRY": "FRANCE", "MSNDATE": "9/26/1918", "LATITUDE": 49.356794, "MDS": "HADLEY PAGE O/400", "NUMBEROFPLANESATTACKING": 14}, {"TGTLOCATION": "METZ-SABLON, THIONVILLE, PLAPPEVILLE", "COUNTRY": "UK", "LONGITUDE": 6.175875, "TGTCOUNTRY": "FRANCE", "MSNDATE": "9/26/1918", "LATITUDE": 49.115461, "MDS": "HADLEY PAGE O/400", "NUMBEROFPLANESATTACKING": 14}, {"TGTLOCATION": "METZ-SABLON, FRESCATY", "COUNTRY": "UK", "LONGITUDE": 6.175875, "TGTCOUNTRY": "FRANCE", "MSNDATE": "9/26/1918", "LATITUDE": 49.115461, "MDS": "HADLEY PAGE O/400", "NUMBEROFPLANESATTACKING": 23}, {"TGTLOCATION": "MEZIERES, METZ-SABLON", "COUNTRY": "UK", "LONGITUDE": 4.726096, "TGTCOUNTRY": "SWITZERLAND", "MSNDATE": "9/26/1918", "LATITUDE": 49.762085, "MDS": "HADLEY PAGE O/400", "NUMBEROFPLANESATTACKING": 28}, {"TGTLOCATION": "", "COUNTRY": "USA", "LONGITUDE": "", "TGTCOUNTRY": "FRANCE", "MSNDATE": "9/26/1918", "LATITUDE": "", "MDS": "SPAD XIII", "NUMBEROFPLANESATTACKING": ""}, {"TGTLOCATION": "DUN-SUR-MEUSE", "COUNTRY": "USA", "LONGITUDE": 5.184436, "TGTCOUNTRY": "FRANCE", "MSNDATE": "9/27/1918", "LATITUDE": 49.387969, "MDS": "BREGUET 14 B2", "NUMBEROFPLANESATTACKING": 23}, {"TGTLOCATION": "MOUZON", "COUNTRY": "USA", "LONGITUDE": 5.685626, "TGTCOUNTRY": "FRANCE", "MSNDATE": "9/27/1918", "LATITUDE": 48.354415, "MDS": "LIBERTY DH 4", "NUMBEROFPLANESATTACKING": 33}, {"TGTLOCATION": "MOUZON", "COUNTRY": "USA", "LONGITUDE": 5.685626, "TGTCOUNTRY": "FRANCE", "MSNDATE": "9/27/1918", "LATITUDE": 48.354415, "MDS": "LIBERTY DH 4", "NUMBEROFPLANESATTACKING": 33}, {"TGTLOCATION": "MOUZON", "COUNTRY": "USA", "LONGITUDE": 5.685626, "TGTCOUNTRY": "FRANCE", "MSNDATE": "9/27/1918", "LATITUDE": 48.354415, "MDS": "LIBERTY DH 4", "NUMBEROFPLANESATTACKING": 33}, {"TGTLOCATION": "MOUZON", "COUNTRY": "USA", "LONGITUDE": 5.685626, "TGTCOUNTRY": "FRANCE", "MSNDATE": "9/27/1918", "LATITUDE": 48.354415, "MDS": "LIBERTY DH 4", "NUMBEROFPLANESATTACKING": 33}, {"TGTLOCATION": "ETAIN", "COUNTRY": "USA", "LONGITUDE": 5.640218, "TGTCOUNTRY": "FRANCE", "MSNDATE": "9/27/1918", "LATITUDE": 49.212586, "MDS": "BREGUET 14 B2", "NUMBEROFPLANESATTACKING": 28}, {"TGTLOCATION": "ETAIN", "COUNTRY": "USA", "LONGITUDE": 5.640218, "TGTCOUNTRY": "FRANCE", "MSNDATE": "9/27/1918", "LATITUDE": 49.212586, "MDS": "BREGUET 14 B2", "NUMBEROFPLANESATTACKING": 28}, {"TGTLOCATION": "ETAIN", "COUNTRY": "USA", "LONGITUDE": 5.640218, "TGTCOUNTRY": "FRANCE", "MSNDATE": "9/27/1918", "LATITUDE": 49.212586, "MDS": "BREGUET 14 B2", "NUMBEROFPLANESATTACKING": 28}, {"TGTLOCATION": "ETAIN", "COUNTRY": "USA", "LONGITUDE": 5.640218, "TGTCOUNTRY": "FRANCE", "MSNDATE": "9/27/1918", "LATITUDE": 49.212586, "MDS": "BREGUET 14 B2", "NUMBEROFPLANESATTACKING": 28}, {"TGTLOCATION": "", "COUNTRY": "USA", "LONGITUDE": "", "TGTCOUNTRY": "FRANCE", "MSNDATE": "9/27/1918", "LATITUDE": "", "MDS": "SPAD XIII", "NUMBEROFPLANESATTACKING": ""}, {"TGTLOCATION": "LONGOYON,  AUDUN-LE-ROMAN, FRIEUX, GOURAMCOURT, STENNAY", "COUNTRY": "FRANCE", "LONGITUDE": "", "TGTCOUNTRY": "FRANCE", "MSNDATE": "9/27/1918", "LATITUDE": "", "MDS": "CAPRONI", "NUMBEROFPLANESATTACKING": 24}, {"TGTLOCATION": "LONGOYON,  AUDUN-LE-ROMAN, FRIEUX, GOURAMCOURT, STENNAY", "COUNTRY": "FRANCE", "LONGITUDE": "", "TGTCOUNTRY": "FRANCE", "MSNDATE": "9/27/1918", "LATITUDE": "", "MDS": "CAPRONI", "NUMBEROFPLANESATTACKING": 24},