COUNTRY_FLYING_MISSION,TGT_COUNTRY,TGT_LOCATION,LATITUDE,LONGITUDE,MSNDATE,TGT_TYPE,TGT_INDUSTRY
USA,BURMA,MANWEIN,24.08333333,97.06666667,10/11/1944,TOWN,
USA,PHILIPPINE ISLANDS,BONTOC,17.08333333,121,3/20/1945,SUPPLY BUILDING,
USA,BURMA,MANYWET,25.31666667,96.86666667,2/13/1944,ROAD AND RAIL JUNCTI,
USA,JAPAN,OSAKA,34.68333333,135.5333333,5/16/1945,URBAN AREA,
USA,CELEBES ISLANDS,GORONTALO,0.516666667,123.05,9/16/1944,WAREHOUSES,
USA,BURMA,NAMTI,27.33333333,97.66666667,3/13/1944,UNIDENTIFIED TARGET,
USA,JAVA,BAUCAU VILLAGE,-8.466666667,126.45,12/7/1944,AREA,
USA,BURMA,SHWEBO,22.58333333,95.66666667,7/4/1943,RAILROAD YARDS,
NEW ZEALAND,NEW IRELAND,NEW IRELAND SWEEP,-2.733333333,150.85,12/17/1944,VARIOUS TARGETS,
USA,PHILIPPINE ISLANDS,SANTA FE,11.166667,123.783333,5/20/1945,TROOPS,
USA,NEW GUINEA,LAE A/D,-6.74143,146.989626,8/31/1942,AIRFIELD,
USA,BURMA,LOILAW,25.26666667,96.91666667,1/9/1944,BRIDGE,
USA,CHINA,RAKLI BAY,19.13333333,108.7166667,4/14/1945,DOCKS,
USA,PHILIPPINE ISLANDS,DAVAO GULF,7.083333333,125.6666667,10/20/1944,PERSONNEL CONCENTRAT,
USA,SUMATRA,BALAM,-1.3,102.4666667,5/10/1944,STORES,
USA,PHILIPPINE ISLANDS,ANGAT RIVER,14.91666667,121,5/29/1945,UNIDENTIFIED TARGET,
USA,BURMA,MANDALAY,21.98333333,96.08333333,5/12/1943,MARSHALLING YARDS,
USA,BURMA,PYINDAW,25.28333333,96.81666667,2/11/1944,UNIDENTIFIELD TARGET,
USA,PHILIPPINE ISLANDS,CAMALIG,13.16666667,123.6666667,4/10/1945,HILL,
USA,BURMA,ELA,19.61666667,96.23333333,1/30/1945,R R BRIDGE,
GREAT BRITAIN,GREECE,VERONA W M/Y,45.43,11,2/8/1945,,
USA,CELEBES ISLANDS,MOLUKKA SEA,2.2,125.5166667,11/18/1944,UNIDENTIFIED TARGET,
USA,PHILIPPINE ISLANDS,CATABLINGAN,14.768636,121.623595,5/5/1945,UNIDENTIFIED TARGET,
USA,BURMA,KAMAING,25.53333333,96.71666667,12/18/1943,ROAD,
USA,BURMA,NAMYAO,22.9,97.6,1/10/1945,SUPPLIES PERSONNEL,
USA,NEW GUINEA,WEWAK,-3.583333333,143.6666667,3/14/1944,JAP POSITIONS,
USA,JAPAN,OSAKA,34.66666667,135.5,1/24/1945,GAS CO,
USA,CHINA,KAIFENG,34.8,114.35,6/13/1945,RAILROAD YARDS,
USA,BURMA,AUCHE,25.71666667,96.85,4/18/1944,UNIDENTIFIED TARGET,
USA,TUNISIA,ARRAM ROADS AND MT,33.59,10.31,2/25/1943,,800
USA,CAROLINE ISLANDS,TRUK ISLAND,7.5,151.8333333,6/20/1944,UNIDENTIFIED TARGET,
USA,JAPAN,31 12 N 130 3,31.2,130.5666667,8/8/1945,TOWN,
USA,CAROLINE ISLANDS,TRUK ISLAND,7.5,151.8333333,5/6/1944,AIRFIELD,
USA,PHILIPPINE ISLANDS,TUGUEGARAO,17.66666667,121.75,5/8/1945,PERSONNEL,
USA,WAKE ISLAND,WAKE ISLAND,19.28333333,166.5833333,5/31/1944,GUN EMPLACEMENTS,
USA,MARSHALL ISLANDS,MILLE ATOLL,6.166666667,171.9166667,2/12/1944,UNIDENTIFIED TARGET,
USA,BURMA,HSENWI,23.3,97.96666667,5/10/1944,BRIDGE,
USA,PHILIPPINE ISLANDS,CEBU ISLAND,9.583333333,123.3333333,5/19/1945,UNIDENTIFIED TARGET,
USA,PHILIPPINE ISLANDS,IPIL,16.7,121.6333333,4/27/1945,TROOPS,
USA,BURMA,NAMTI,27.33333333,97.66666667,4/17/1943,UNIDENTIFIED TARGET,
USA,BURMA,AKYAB,20.15,92.9,11/5/1943,SLR BLDG TELEGRAPH,
USA,NEW GUINEA,WEWAK,-3.583333333,143.6666667,7/4/1944,UNIDENTIFIED TARGET,
USA,CHINA,CHUANGSIEN,25.7,111.1,7/29/1945,BRIDGE,
USA,NEW GUINEA,MAFFIN BAY,-2,138.8333333,5/7/1944,ANTI AIRCRAFT BATTER,
USA,JAPAN MINING,FUSHIKI N,36.8,137.0666667,7/9/1945,HARBOR AREA,
USA,SOLOMON ISLANDS,KIRINANI,-6.683333333,155.4833333,3/3/1944,UNIDENTIFIED TARGET,
USA,PHILIPPINE ISLANDS,TANAUAN,14.08333333,121.1666667,1/19/1945,MOTOR TRANSPORT,
USA,BISMARK ARCHIPELAGO,TALASEA PT,-5.483333333,149.65,2/16/1945,UNIDENTIFIED TARGET,
USA,FORMOSA AND RYUKYU ISLANDS,TAICHU,24.13333333,120.6666667,4/17/1945,AIR PLANES,
USA,NEW GUINEA,KAMIRIK,-0.95,134.8,6/21/1944,AIRDROME,
GREAT BRITAIN,BURMA,AKYAB AIRFIELD,20.132708,92.872628,5/22/1942,AIRFIELD,
USA,PHILIPPINE ISLANDS,LIBBY,7.05,125.5333333,11/19/1944,AIRDROME,
USA,CHINA,LONGCHOW,22.36666667,106.9333333,12/22/1944,TOWN CENTER,
USA,NEW GUINEA,KAIRIRU,-3.333333333,143.5833333,6/18/1945,CAMP AREA,
USA,NEW GUINEA,OAGUA,-3.416666667,143.3333333,5/14/1944,VILLAGE,
USA,BURMA,MANYWET,25.31666667,96.86666667,2/19/1944,SUPPLY DUMP,
USA,NEW GUINEA,BAGEISERWAR,-1.916666667,138.8333333,7/11/1944,BIVOVAC AREA,
USA,BORNEO,6 13 N 115 0,6.216666667,115.05,7/4/1945,PERSONNEL AREA,
USA,PHILIPPINE ISLANDS,CORREGIDOR,14.41666667,120.5833333,2/14/1945,DOCK,
USA,FORMOSA AND RYUKYU ISLANDS,22 35 N 120 1,22.58333333,120.25,5/18/1945,SUGAR REFINERY,
USA,BISMARK ARCHIPELAGO,MOMOTE,-2.083333333,147.4166667,2/26/1944,SUPPLIES,
USA,SOLOMON ISLANDS,ROTA,-6.416666667,155.3333333,8/18/1944,CONTROL TOWER REVT A,
USA,PHILIPPINE ISLANDS,SARANGANI BAY,6.083333333,125.1666667,1/18/1944,UNIDENTIFIED TARGET,
USA,BISMARK ARCHIPELAGO,CAPE GLOUCESTER,-5.416666667,148.4166667,8/13/1943,UNIDENTIFIED TARGET,
USA,PHILIPPINE ISLANDS,ZAMBOANGA,6.916666667,122.1666667,3/9/1945,UNIDENTIFIED TARGET,
USA,BORNEO,MAHAKAM RIVER,-0.45,117.0333333,7/18/1945,UNIDENTIFIED TARGET,
USA,PHILIPPINE ISLANDS,MARIVELES,14.41666667,120.5,2/10/1945,PERSONNEL,
USA,JAPAN,OITA,33.23333333,131.6,5/17/1945,URBAN AREA,
USA,FORMOSA AND RYUKYU ISLANDS,TAIHOKU,25.03333333,121.5,5/8/1945,GOVERMENT CENTER,
USA,CHINA,SINSHIH,30.6,120.25,7/25/1944,UNIDENTIFIED TARGET,
USA,SOLOMON ISLANDS,BUKA,-5.416666667,154.7,6/13/1944,AIRDROME,
USA,BISMARK ARCHIPELAGO,DAGI RIVER,-5.666666667,150.25,11/2/1943,UNIDENTIFIED TARGET,
USA,VOLCANO AND BONIN ISLANDS,IWO JIMA,24.78333333,141.3166667,11/19/1944,UNIDENTIFIED TARGET,
USA,CELEBES ISLANDS,PALOPO,-3,120.25,10/25/1944,LUMBER MILL,
USA,NEW GUINEA,CAPE AWOERA,-4,134.5,9/2/1944,UNIDENTIFIED,
AUSTRALIA,NEW GUINEA,BUNA AIRFIELD,-8.682686,148.423689,8/28/1942,AIRFIELD,
USA,BURMA,HAINANG,21.03333333,97.51666667,5/22/1945,TROOP CONCENTRATION,
USA,KURILE ISLANDS,SURIBACHI,50.2,155.7333333,12/6/1944,UNIDENTIFIED TARGET,
AUSTRALIA,NEW GUINEA,KOEPANG,-8.666666667,151.3333333,6/15/1942,AIRFIELD,
USA,BORNEO,VICTORIA,5.283333333,115.2333333,1/14/1945,DOCK AREA,
USA,FORMOSA AND RYUKYU ISLANDS,HEITO,22.66666667,120.4833333,1/22/1945,FUEL AMMUNITION,
USA,BURMA,LASHIE,22.979477,97.75255,11/23/1944,STORAGE AREA,
USA,BISMARK ARCHIPELAGO,VUNAKANAU,-4.325175,152.131516,10/17/1942,AIRFIELD,
USA,FORMOSA AND RYUKYU ISLANDS,BONGARI SHA,22.48333333,120.65,6/2/1945,VILLAGE,
USA,PHILIPPINE ISLANDS,BABUYAN ISLAND,19.16666667,121.5,3/5/1945,UNIDENTIFIED TARGET,
USA,JAPAN,HAMAMATSU,34.7,137.7333333,6/8/1945,URBAN AREA,
USA,MARSHALL ISLANDS,MALOELAP ATOLL,8.75,171.05,4/17/1944,HEAVY ANTI AIRCRAFT,
USA,KURILE ISLANDS,KATAOKA,50.71666667,156.1833333,2/5/1945,NAVAL BASE,
USA,NEW GUINEA,KAI ISLAND,-5.666666667,132.9166667,3/30/1944,LANGGOER AIRDROME,
USA,BISMARK ARCHIPELAGO,LORENGAU,-2.016666667,147.2666667,2/11/1944,AIRDROME,
USA,NEW GUINEA,MANOKWARI,-0.833333333,134.0833333,7/4/1944,UNIDENTIFIED TARGET,
USA,BISMARK ARCHIPELAGO,KERAVIA BAY,-4.283333333,152.2,6/10/1944,SUPPLY AREA,
USA,PHILIPPINE ISLANDS,KABACAN,7.166666667,124.8333333,4/17/1945,TOWN,
USA,NEW GUINEA,BUNA,-8.666666667,148.4166667,11/19/1942,UNIDENTIFIED TARGET,
USA,NEW GUINEA,BUT,-3.416666667,143.25,4/7/1944,UNIDENTIFIED TARGET,
USA,NEW GUINEA,KAMIRI,-0.95,134.8,7/1/1944,ANTI AIRCRAFT,
USA,NEW GUINEA,ALEXISHAFEN,-5.083333333,145.7833333,9/1/1943,PLANTATION BUILDINGS,
USA,BISMARK ARCHIPELAGO,CAPE GLOUCESTER,-5.416666667,148.4166667,8/21/1943,UNIDENTIFIED TARGET,
USA,NEW GUINEA,FAK FAK,-2.916666667,132.25,7/22/1944,VILLAGE,
USA,NEW GUINEA,SAKULA RIVER,-4.2,144.8833333,5/21/1944,UNIDENTIFIED TARGET,
USA,PHILIPPINE ISLANDS,TUMAUINI,17.25,121.8333333,6/10/1945,GROUND SUPPORT,
USA,BURMA,ALAM,25.55,97.5,11/2/1943,UNIDENTIFIED TARGET,
USA,NEW GUINEA,WEWAK,-3.583333333,143.6666667,3/8/1943,AIRFIELD,
USA,NEW GUINEA,WEWAK,-3.583333333,143.6666667,7/28/1944,UNIDENTIFIED TARGET,
USA,JAPAN,TARUMIZU,31.48333333,130.7,8/5/1945,AIRCRAFT FACTORY,
USA,CELEBES ISLANDS,MAPANGET,1.533333333,124.9333333,1/6/1945,AIRDROME,
USA,JAPAN,TOKYO,35.57873951,139.7212022,4/18/1942,,
USA,MARIANAS ISLANDS,PAGAN ISLAND,18.13333333,145.7833333,8/28/1944,AIRFIELD,
USA,TUNISIA,LG WEST OF MEDENINE AND PP,33.35,10.51,1/24/1943,,780
USA,MARSHALL ISLANDS,WOTJE ISLAND,9.5,170,2/6/1944,AIRDROME,
USA,BISMARK ARCHIPELAGO,VUNAKANAU,-4.316666667,152.1833333,2/14/1944,AIRFIELD,
USA,FORMOSA AND RYUKYU ISLANDS,TAINAN,23,120.2,2/7/1945,AIRDROME,
USA,NEW GUINEA,AWAR,-4.166666667,144.8333333,5/18/1944,AA POSITIONS,
GREAT BRITAIN,GREECE,NAPLES HARBOR,40.84,14.28,3/4/1943,,
USA,FORMOSA AND RYUKYU ISLANDS,TAKAO,22.63333333,120.2833333,3/24/1945,UNIDENTIFIED TARGET,
AUSTRALIA,NEW GUINEA,BUNA AREA,-8.660055,148.418701,12/2/1942,ENEMY WARSHIPS,
USA,BURMA,MOGAUNG,25.3,96.93333333,4/17/1943,UNIDENTIFIED TARGET,
USA,PALAU ISLANDS,YAP ISLAND,9.533333333,138.1333333,10/25/1944,UNIDIENTIFIED TARGET,
USA,JAPAN,KURE,34.23333333,132.5666667,7/29/1945,MARBOR,
USA,NEW GUINEA,SALAMAUA,-7.016666667,147.1166667,7/27/1943,UNIDENTIFIED TARGET,
USA,SOLOMON ISLANDS,NUMA NUMA,-5.866666667,155.2333333,4/28/1944,UNIDENTIFIED TARGET,
USA,CHINA,PRATAS ISLAND,20.33333333,115.2833333,3/4/1945,RADIO STATION,
USA,SOLOMON ISLANDS,KARA,-6.7,155.7166667,9/15/1943,AIRFIELD,
USA,PHILIPPINE ISLANDS,APARRI,18.33333333,121.6666667,3/14/1945,ANTI AIR CRAFT POSIT,
USA,PHILIPPINE ISLANDS,MT PACAWAGAN,14.7269,121.1714,4/10/1945,UNIDENTIFIED TARGET,
USA,BURMA,KINU,22.75,95.66666667,11/12/1944,MARSHALLING YARDS,
USA,PHILIPPINE ISLANDS,ORMOC,11,124.5833333,11/12/1944,SHIPPING AND DOCKS,
USA,FORMOSA AND RYUKYU ISLANDS,TAINAN,23,120.2,5/5/1945,GROUND INSTALLATION,
USA,ITALY,PONTELATONE,40,13,10/13/1943,,20
USA,NEW GUINEA,MUSHU ISLAND,-3.416666667,143.5833333,7/5/1944,UNIDENTIFIED TARGET,
USA,NEW GUINEA,TOEL,-7.983333333,131.25,3/18/1943,UNIDENTIFIED TARGET,
USA,SOLOMON ISLANDS,BOUGAINVILLE,-6.2,155.25,3/15/1944,UNIDENTIFIED TARGET,
USA,CHINA,SINTSIANG,29.11666667,113.25,8/29/1944,UNIDENTIFIED TARGET,
USA,JAPAN,MIYAKONOJO,31.73333333,131.0666667,4/27/1945,MIYAJONOJO AIFIELD,
USA,NEW GUINEA,POTSOAM HARBOR,-4.25,145,5/9/1944,BRIDGE,
USA,JAPAN,SHINGU CITY,33.73333333,136,3/24/1945,URBAN AREA,
USA,PHILIPPINE ISLANDS,LAL LO,18.16666667,121.6666667,3/6/1945,UNIDENTIFIED TARGET,
USA,JAPAN,KINOMOTO,33.9,136.1,8/9/1945,URBAN AREA,
USA,PHILIPPINE ISLANDS,LIBBY,7.05,125.5333333,1/10/1945,WAREHOUSES,
USA,NEW GUINEA,HUMBOLDT BAY,-2.583333333,140.75,4/12/1944,ANTI ARICRAFT POSITI,
USA,PHILIPPINE ISLANDS,TUGUEGARAO,17.66666667,121.75,4/11/1945,BRIDGE,
USA,BURMA,MAYMYO,22.03333333,96.46666667,12/19/1944,BARRACKS,
USA,BURMA,BUDALIN,22.41666667,95.16666667,9/25/1944,BY PASS,
USA,BURMA,MOGAUNG,25.3,96.93333333,7/25/1943,RICE MILL,
USA,PHILIPPINE ISLANDS,MT LUSEN,16.33333333,120.5,3/28/1945,UNIDENTIFIED TARGET,
USA,BISMARK ARCHIPELAGO,VUNAKANAU,-4.316666667,152.1833333,5/16/1944,SUPPLY AREA,
USA,CHINA,KIYANG,27.08333333,118.0333333,9/20/1944,UNIDENTIFIED TARGET,
USA,JAVA,KELA,-8.6,120.8166667,8/13/1943,VILLAGE,
USA,PHILIPPINE ISLANDS,MACTAN ISLAND,10.33333333,124,12/11/1944,BUPPLIES,
USA,CELEBES ISLANDS,LIANG,-3.516666667,128.3,10/9/1944,AIRDROME,
USA,PHILIPPINE ISLANDS,NEGRITOS,10.73333333,123.1833333,4/28/1945,UNIDENTIFIED TARGET,
USA,NEW GUINEA,BUNA,-8.666666667,148.4166667,11/30/1942,UNIDENTIFIED TARGET,
USA,PHILIPPINE ISLANDS,SAN FERNANDO,16.633333,120.3,3/11/1945,GUN POSITION,
USA,CHINA,LINGLING,26.25,111.5333333,9/23/1944,UNIDENTIFIED TARGET,
USA,BURMA,RANGOON,16.8,96.15,4/30/1943,SHIPPING IN RIVER,
USA,PHILIPPINE ISLANDS,TAYUG,16,120.75,1/25/1945,UNIDENTIFIED TARGET,
USA,PHILIPPINE ISLANDS,17 26 N 121 4,17.43333333,121.7833333,6/23/1945,TROOPS,
USA,BISMARK ARCHIPELAGO,CAPE GLOUCESTER,-5.416666667,148.4166667,7/5/1943,UNIDENTIFIED TARGET,
USA,CHINA,TEHSHAN,20.96666667,111.5833333,12/8/1943,UNIDENTIFIED TARGET,
USA,NEW GUINEA,SHAGGY RIDGE,-5.954167,146.375,1/19/1944,GROUND SUPPORT,
USA,BURMA,MANDAU,24.33333333,97.5,2/13/1943,BARRACKS,
USA,CHINA,CHALING,26.93333333,113.5333333,7/26/1944,CAVALRY,
USA,CELEBES ISLANDS,TOA RIVER,-4.866666667,120.3,5/16/1944,UNIDENTIFIED TARGET,
USA,SOLOMON ISLANDS,ROTA,-6.416666667,155.3333333,12/17/1944,MISCELLANEOUS TARGET,
USA,UNKNOWN,PARCEL ISLAND [PARACEL ISLANDS],16.5,112,12/22/1944,UNIDENTIFIED TARGET,
USA,NEW GUINEA,KAI ISLAND,-5.666666667,132.9166667,10/13/1943,UNIDENTIFIED TARGET,
USA,FORMOSA AND RYUKYU ISLANDS,JITSUGETSUTAN,23.85,120.8666667,3/23/1945,POWER PLANT,
USA,SOLOMON ISLANDS,BALLALE,-7,155.9,2/17/1944,AIRDROME,
USA,JAPAN,YOKUSUKA,35.26666667,139.6666667,5/16/1945,URBAN AREA,
USA,CHINA,RAKLI BAY,19.13333333,108.7166667,4/18/1945,DOCKS,
USA,CAROLINE ISLANDS,TAGAULAP ISLAND,7.366666667,143.8833333,5/15/1944,UNIDENTIFIED TARGET,
USA,BURMA,KATKYO,25.33333333,97.4,5/17/1944,GROUND SUPPORT,
USA,CHINA,WEICHOW,37.33333333,106.4833333,7/24/1944,JUNKS,
USA,BURMA,MAHLWAGON,16.81666667,96.18333333,4/22/1943,MARSHALLING YARDS,
USA,JAPAN,SHIZUOKA,34.96666667,138.3666667,3/6/1945,URBAN AREA,
GREAT BRITAIN,GREECE,GILAVE - BUSI,41.15,20.17,3/12/1941,,
USA,PHILIPPINE ISLANDS,CUMAO,18.08333333,121.75,5/2/1945,SUPPORT GROUND TROOP,
USA,BURMA,MYITKYINA,25.38333333,97.4,3/20/1944,SUPPLY DUMPS,
USA,PHILIPPINE ISLANDS,SANTA MARIA,14.5,121.4166667,4/25/1945,TROOP CONCENTRATION,
USA,MARIANAS ISLANDS,TINIAN,15.03333333,145.8333333,7/31/1944,WOODED AREA,
NEW ZEALAND,BISMARK ARCHIPELAGO,VUNAPOPE,-4.333333333,152.3333333,6/28/1944,SUPPLY AREA,
USA,PHILIPPINE ISLANDS,CLARK FIELD,15.16666667,120.5833333,2/7/1945,GROUND SUPPORT,
USA,CELEBES ISLANDS,AMBON,-3.700432,128.17547,10/24/1944,RESERVOIR,
USA,PHILIPPINE ISLANDS,OSBOY,14.83333333,121.0833333,4/16/1945,UNIDENTIFIED TARGET,
USA,NEW GUINEA,HANSA BAY,-4.166666667,144.9166667,4/10/1944,ANTI AIRCRAFT POSITI,
USA,JAPAN,UWAJIMA,33.23333333,132.5666667,5/12/1945,URBAN AREA,
USA,BURMA,MOHNYIN,24.78333333,96.36666667,1/20/1944,UNIDENTIFIED TARGET,
USA,NEW GUINEA,WEWAK,-3.583333333,143.6666667,5/13/1944,AIRFIELD,
USA,PHILIPPINE ISLANDS,IPO,14.83333333,121.1666667,5/18/1945,TROOPS,
USA,ITALY,PIGNATARO,41.2,14.18,1/19/1944,,10
USA,NEW GUINEA,ANUMBE RIVER,-3.416666667,143.1666667,6/19/1944,SUPPLY AREA,
USA,BURMA,LASHIO,22.93333333,97.75,2/1/1945,AREA,
GREAT BRITAIN,BURMA,YENANGYAUNG OIL FIELDS,20.458261,94.873181,5/1/1942,OIL,
USA,CELEBES ISLANDS,TIMOR ISLAND,-5.383333333,123.6333333,11/19/1944,UNIDENTIFIED TARGET,
USA,FRENCH INDO CHINA,HANOI,21.2,105.8666667,7/4/1945,BARGES,
USA,BURMA,RANGOON,16.8,96.15,10/3/1943,MINGALADON AIRDROME,
USA,CHINA,SICHWAN,33.8,112.55,5/25/1945,AMMO DUMP,
USA,ITALY,COSENZA,39.27,16.25,5/22/1944,,810
USA,BURMA,HSENWI,23.3,97.96666667,1/25/1945,GAS DUMP,
USA,VOLCANO AND BONIN ISLANDS,CHICHI JIMA,27.06666667,142.2166667,6/11/1945,RADIO STATION 7,
USA,NEW GUINEA,BONGA,-6.416666667,147.8333333,1/26/1944,UNIDENTIFIED TARGET,
USA,CHINA,YUTZE,37.65,112.7333333,6/19/1945,BRIDGES,
USA,CELEBES ISLANDS,WEDA BAY,0.083333333,128.0833333,7/5/1944,BARGE,
USA,ITALY,AVEZZANO,42.03,13.43,1/12/1944,,630
USA,JAPAN,TOMITAKA,32.4,131.6333333,6/19/1945,URBAN AREA,
GREAT BRITAIN,GREECE,DUKATI,40.3,19.5,3/30/1941,,
USA,FORMOSA AND RYUKYU ISLANDS,AMAMI,28.3,129.4,6/15/1945,UNIDENTIFIED TARGET,
USA,BURMA,MEIKTILA,20.91666667,95.83333333,2/20/1945,UNIDENTIFIED TARGET,
USA,SOLOMON ISLANDS,UGUIMA RIVER,-6.766666667,155.7666667,6/12/1944,BRIDGE,
USA,CELEBES ISLANDS,KAIRATOE,-3.35,128.359038,10/16/1944,AIRDROME,
USA,FRENCH INDO CHINA MINING,CAM RANH BAY,11.83333333,109.2166667,12/17/1944,UNIDENTIFIED TARGET,
USA,NEW GUINEA,WEWAK,-3.583333333,143.6666667,6/28/1944,ROAD,
USA,CELEBES ISLANDS,WEDA BAY,0.083333333,128.0833333,8/12/1944,BARGE,
USA,VOLCANO AND BONIN ISLANDS,IWO JIMA,24.78333333,141.3166667,2/8/1945,DISPERSAL AREA,
USA,JAPAN,AOMORI,40.83333333,140.75,7/28/1945,URBAN AREA,
USA,BURMA,HSENWI,23.3,97.96666667,2/2/1945,TROOPS,
USA,CELEBES ISLANDS,CERAM ISLAND,-3.25,129.5,7/31/1944,UNIDENTIFIED TARGET,
USA,NEW GUINEA,WEWAK,-3.583333333,143.6666667,9/28/1943,UNIDENTIFIED TARGET,
USA,NEW GUINEA,TADJI,-3.166666667,142.4166667,4/21/1944,PERSONNEL,
USA,SOLOMON ISLANDS,MONOITU,-6.683333333,155.4333333,3/3/1944,UNIDENTIFIED TARGET,
USA,FORMOSA AND RYUKYU ISLANDS,TAKAO,22.63333333,120.2833333,1/29/1945,FACTORIES,
USA,JAPAN,TOKUYAMA,34.05,131.8,7/29/1945,URBAN AREA,
USA,CELEBES ISLANDS,LOLOBATA,1.25,128.1166667,11/28/1944,AIRDROME,
USA,PHILIPPINE ISLANDS,NAGUILIAN,16.533889,120.396944,6/17/1945,AREA,
USA,MARIANAS ISLANDS,GUGUAN ISLAND,17.31666667,145.85,3/9/1945,UNIDENTIFIED TARGET,
USA,CELEBES ISLANDS,TIMOR ISLAND,-5.383333333,123.6333333,12/28/1944,BRIDGE,
USA,ITALY,CETRARO,39.5,15.93,8/31/1943,,20
USA,NEW GUINEA,WEWAK,-3.583333333,143.6666667,8/11/1944,UNIDENTIFIED TARGET,
USA,JAVA,BANOA,-8.6,115.3,10/23/1944,UNIDENTIFIED TARGET,
USA,MARIANAS ISLANDS,PAGAN ISLAND,18.13333333,145.7833333,11/22/1944,AIRFIELD,
NEW ZEALAND,NEW GUINEA,WARANGOI,-4.48333,152.15,8/7/1945,PERSONNEL AREA,
USA,BURMA,HSENWI,23.3,97.96666667,1/4/1945,TOWN,
USA,BURMA,NAMKWI,25.43333333,97.35,5/28/1944,BRIDGE,
USA,CELEBES ISLANDS,NAMLEA,-3.266666667,127.1,8/13/1944,AIRDROME,
USA,BURMA,SHANYWA,17.8,95.75,4/26/1945,ENEMY POSITIONS,
USA,JAVA,FLORES SFA,-7,124,12/5/1944,UNIDENTIFIED TARGET,
GREAT BRITAIN,BURMA,KALEWA,23.2,94.3,4/18/1944,,
USA,FRENCH INDO CHINA,TOURANE BAY,16.13333333,108.1833333,2/1/1945,UNIDENTIFIED TARGET,
USA,CAROLINE ISLANDS,DUBLON ISLAND,7.383333333,151.8833333,6/24/1944,TACTICAL TARGET,
USA,PHILIPPINE ISLANDS,CALLANG,17.01666667,121.6333333,5/25/1945,JAP PERSONNEL AREA,
USA,BURMA,MOLO,23.38333333,96.88333333,2/5/1945,GUN POSITION,
USA,FORMOSA AND RYUKYU ISLANDS,HOKKO,23.58333333,120.2833333,6/19/1945,GUN POSITIONS,
USA,PHILIPPINE ISLANDS,KABAYAN,16.66666667,120.8333333,8/4/1945,TROOP CONCENTRATIONS,
USA,FRENCH INDO CHINA,NINH BINN,20.25,106,11/29/1944,RAILROAD BRIDGE,
USA,NEW GUINEA,KUNAI,-6.633333333,146.6333333,4/21/1944,S TAJI DROME,
USA,BURMA,ALEDAW,23.866277,96.115851,12/9/1944,STORES,
USA,BORNEO,BORNEO,0.01,114.01,11/26/1944,SHIPPING,
USA,NEW GUINEA,WEWAK,-3.583333333,143.6666667,4/23/1945,BARGES,
USA,CHINA,HENGYANG,26.93333333,112.5833333,5/2/1945,AIRFIELD,
USA,BURMA,KYAUKTAW,20.75,93,9/16/1944,UNIDENTIFIED TARGET,
USA,NEW GUINEA,WAKOE ISLAND,-1.916666667,139,5/14/1944,ARARA VILLAGE,
USA,PHILIPPINE ISLANDS,MAILAG,8,125.0833333,11/5/1944,BRIDGE,
USA,CHINA,HENGYANG,26.93333333,112.5833333,3/26/1945,UNIDENTIFIED TARGET,
USA,NEW GUINEA,MALIN,-3.4,143.0333333,11/7/1944,VILLAGE,
USA,PHILIPPINE ISLANDS,RIZAL,10.923333,125.021389,5/24/1945,UNIDENTIFIED TARGET,
USA,BURMA,KALAW,20.63333333,96.56666667,3/14/1945,ENEMY POSITIONS,
USA,NEW GUINEA,WEWAK,-3.583333333,143.6666667,12/22/1943,AIRFIELD,
USA,CHINA,TUNGANHSIEN,26.18333333,111.25,9/11/1944,RAILROAD BRIDGE,
USA,PHILIPPINE ISLANDS,MINDANAO,8,125,3/4/1945,BARRACKS,
USA,FORMOSA AND RYUKYU ISLANDS,TOSHIEN,23.76666667,120.65,5/11/1945,UNIDENTIFIED TARGET,
USA,BURMA,TAUNGDWINGYI,20,95.55,1/3/1945,MARSHALLING YARDS,
USA,VOLCANO AND BONIN ISLANDS,IWO JIMA,24.78333333,141.3166667,12/8/1944,UNIDENTIFIED TARGET,
USA,ITALY,CEPRANO,41.55,13.53,2/28/1944,,780
USA,PHILIPPINE ISLANDS,SAN JOSE,15.8,120.983333,2/2/1945,UNIDENTIFIED TARGET,
USA,MARIANAS ISLANDS,SAIPAN,15.2,145.75,6/30/1944,TROOPS,
USA,PHILIPPINE ISLANDS,JOLO ISLAND,5.916666667,121.1666667,7/28/1945,UNIDENTIFIED TARGET,
USA,ITALY,CIVITAVECCHIA,42.1,11.78,12/14/1943,,710
USA,CHINA,KWEILIN,25.23333333,110.2,7/28/1945,TANKS,
USA,BURMA,MAGWE,20.16666667,94.91666667,12/18/1944,STORES,
USA,NEW GUINEA,WIRUI,-3.583333333,143.6333333,7/12/1944,BRIDGE,
USA,FRENCH INDO CHINA,SAIGON,10.81666667,106.6833333,5/3/1945,OIL INSTALLATIONS,
USA,NEW GUINEA,BUNA,-8.682686,148.423689,11/30/1942,,
USA,MARIANAS ISLANDS,PAGAN ISLAND,18.13333333,145.7833333,12/14/1944,MISCELLANEOUS TARGET,
USA,BORNEO,BORNEO,0.01,114.01,7/5/1945,SHIPPING,
USA,PHILIPPINE ISLANDS,FORT STOTSENBUR,15.16666667,120.5,2/5/1945,UNIDENTIFIED TARGET,
USA,NEW GUINEA,CAPE NOEJEW,-0.283333333,131.2333333,2/2/1944,STORES,
USA,NEW GUINEA,BUNA,-8.666666667,148.4166667,12/3/1942,AREA,
USA,NEW GUINEA,MALAMEL ISLAND,-5.133333333,145.8166667,1/12/1944,UNIDENTIFIED TARGET,
USA,PHILIPPINE ISLANDS,PIGGATAN,18,121.6666667,6/12/1945,TOWN,
USA,NEW GUINEA,MYOLA LAKE - BURA CREEK,-9.1,147.75,9/6/1942,ENEMY BIVOUAC,
USA,ITALY,NARNI,42.5,12.52,4/25/1944,,633
USA,NEW GUINEA,BUSAMA - MUBO,-6.95,147,9/3/1942,GROUND INSTALLATION,
USA,PHILIPPINE ISLANDS,AUAN,14.08333333,121.1666667,3/18/1945,RAILROAD INTERSECTIO,
USA,PHILIPPINE ISLANDS,IPO,14.83333333,121.1666667,5/30/1945,GUN POSITION,
USA,PHILIPPINE ISLANDS,ULUGAN BAY,10.08333333,118.75,5/7/1944,UNIDENTIFIED TARGET,
USA,PHILIPPINE ISLANDS,FORT DRUM,14.33333333,120.6666667,4/2/1945,TACTICAL TARGET,
USA,BISMARK ARCHIPELAGO,RABAUL,-4.2,152.2,3/13/1944,UNIDENTIFIED TARGET,
USA,CHINA,TENGCHUNG,25.01666667,98.48333333,5/29/1944,UNIDENTIFIED TARGET,
USA,JAPAN,MIYAKONOJO,31.73333333,131.0666667,5/2/1945,MIYAJONOJO AIFIELD,
USA,FORMOSA AND RYUKYU ISLANDS,SHINCHIKU,24.8,120.9666667,4/19/1945,OFFICERS BARRACKS,
USA,PHILIPPINE ISLANDS,PUNTA,18.33333333,121.75,6/18/1945,UNIDENTIFIED TARGET,
USA,CELEBES ISLANDS,AMBON,-3.700432,128.17547,3/18/1943,UNIDENTIFIED TARGET,
USA,BURMA,NAWNGCHIO,23.5,97.98333333,1/17/1945,PERSONNEL,
GREAT BRITAIN,ROMANIA,BUCHAREST INDUSTRIAL AREA,44.42,26.1,5/6/1944,,
USA,PHILIPPINE ISLANDS,CERVANTES,17,120.75,6/9/1945,TROOP CONCENTRATION,
USA,BURMA,NAN PON PON,23.46666667,96.65,12/16/1944,UNIDENTIFIED TARGET,
USA,PHILIPPINE ISLANDS,VALENCIA,7.906389,125.094167,11/14/1944,MOTOR PARK EAST OF,
USA,JAPAN,TAIRA,37.06666667,140.9,7/21/1945,URBAN AREA,
USA,CHINA,YUANKIANG,23.5,102.3333333,6/5/1944,TROOP CONCENTRATION,
USA,ITALY,NAPLES,40.84,14.28,4/28/1943,,710
USA,ITALY,LICATA,37.1,13.92,7/8/1943,,630
USA,NEW GUINEA,SALAMAUA,-7.016666667,147.1166667,5/12/1943,UNIDENTIFIED TARGET,
USA,JAPAN,OKAZAKI,34.16666667,134.6333333,1/22/1945,TOWN,
USA,NEW GUINEA,ALEXISHAFEN,-5.083333333,145.7833333,9/1/1943,UNIDENTIFIED TARGET,
USA,BISMARK ARCHIPELAGO,CAPE GLOUCESTER,-5.416666667,148.4166667,9/5/1943,UNIDENTIFIED TARGET,
USA,CHINA,SAMAH,18.41666667,109.4666667,11/8/1944,AIRDROME,
USA,PHILIPPINE ISLANDS,LAKE TAAL,13.91666667,121,3/12/1945,AREA,
USA,PHILIPPINE ISLANDS,LAL LO,18.16666667,121.6666667,3/6/1945,SUPPLIES,
USA,CHINA,TENGCHUNG,25.01666667,98.48333333,8/12/1944,VILLAGE OFF EAST WAL,
AUSTRALIA,NEW GUINEA,DOBU PASSAGE /FERGUSON ISLAND,-9.75,150.9,10/27/1942,BARGES ON BEACH,
USA,BURMA,KYAUKSE,21.6,96.13333333,9/27/1943,JUNCTION,
USA,PHILIPPINE ISLANDS,MT MANDALAGAN,10.66666667,123.25,4/18/1945,UNIDENTIFIED TARGET,
USA,ITALY,AVELLINO,40.9,14.78,9/14/1943,,830
GREAT BRITAIN,CRETE,HERAKLION,35.34,25.14,2/16/1943,,
USA,BURMA,RANGOON,16.8,96.15,3/9/1945,C AND DUMP,
USA,PHILIPPINE ISLANDS,DAVAO,7.1255,125.6458,12/24/1941,AIRPORT,
USA,NEW GUINEA,KINARA,-2.25,132.75,8/1/1944,VILLAGE,
USA,CHINA,RER RIVER VALLEY,20.25,104.5,4/2/1945,IA,
USA,NEW GUINEA,BUT,-3.416666667,143.25,5/5/1944,STORES,
USA,BORNEO,TAIB,-3.266666667,116.1833333,5/29/1945,AREA,
USA,CHINA,LINLING,26.25,111.5333333,9/8/1944,AREA,
GREAT BRITAIN,BURMA,KALEWA,23.2,94.3,4/26/1944,,
USA,PHILIPPINE ISLANDS,OSBOY,14.83333333,121.0833333,4/15/1945,UNIDENTIFIED TARGET,
USA,PHILIPPINE ISLANDS,MARCELINO,14.83333333,121.5833333,1/18/1945,AIRDROME,
USA,CHINA,PINGLO,24.31666667,110.4666667,6/8/1945,TACTICAL TARGET,
USA,FRENCH INDO CHINA,NAM DINH,20.38333333,106.2166667,4/1/1945,RAILROAD YARDS,
USA,BORNEO,LAOET ISLAND,-3.583333333,116.1666667,1/11/1945,UNIDENTIFIED TARGET,
USA,BURMA,NABA,24.26666667,96.25,11/7/1943,RAILROAD YARDS,
USA,JAPAN,TANAMI,33.46666667,135.7333333,6/21/1945,VILLAGE,
USA,BURMA,RANGDON,16.8,96.15,8/16/1943,UNIDENTIFIELD TARGET,
USA,NEW GUINEA,BABO,-2.583333333,133.4166667,9/10/1944,AIRDROME,
USA,BURMA,NAHAING,24.18333333,95.88333333,4/14/1944,UNIDENTIFIED TARGET,
USA,BURMA,KADU,24.73333333,96.28333333,3/16/1944,TROOP INSTALLATIONS,
USA,CAROLINE ISLANDS,WOLEAI ISLAND,7.366666667,143.9166667,4/18/1944,SUPPLY AREA,
USA,TUNISIA,SFAX EL MAOU LG,34.72,10.69,3/31/1943,,780
USA,EGYPT,EL DABA FRONT LINES,31,28.65,10/22/1942,,780
USA,BURMA,INAILONG,22.98333333,97.65,2/4/1945,STEEL BRIDGE,
USA,JAPAN,OSAKA,34.68333333,135.5333333,7/23/1945,OSAKA ARMY ARSENAL,
USA,PHILIPPINE ISLANDS,CORREGIDOR,14.41666667,120.5833333,1/26/1945,UNIDENTIFIED TARGET,
GREAT BRITAIN,ITALY,CITTADELLA,45.63,11.78,4/2/1944,,
USA,BURMA,LONTON,25.1,96.3,2/9/1943,UNIDENTIFIED TARGET,
USA,CHINA,LAOHOKOW,32.38333333,111.6333333,3/27/1945,UNIDENTIFIED TARGET,
USA,PHILIPPINE ISLANDS,NAN,13.9125,122.1726,8/10/1944,UNIDENTIFIED TARGET,
USA,NEW GUINEA,HOLLANDIA,-2.5,140.75,3/30/1944,CYCLOPS AIRDROME,
USA,NEW GUINEA,BUT,-3.416666667,143.25,6/4/1943,AIRDROME,
USA,MARSHALL ISLANDS,MARSHALL ISLAND,10,165,2/14/1944,UNIDENTIFIED TARGET,
USA,BURMA,MONG YAI,22.416667,98.033333,2/16/1945,ENEMY TROOPS,
USA,PHILIPPINE ISLANDS,LABAYAT RIVER,14.53333333,121.5833333,7/13/1945,GROUND SUPPORT,
USA,BURMA,KYWAIKONG,22.5,97,2/27/1945,JAPS,
USA,NEW GUINEA,ALEXISHAFEN,-5.083333333,145.7833333,2/2/1944,UNIDENTIFIED TARGET,
USA,MARIANAS ISLANDS,TINIAN,15.03333333,145.8333333,7/30/1944,ENEMY ARTILLERY,
USA,CHINA,MANGSMIN,24.45,98.58333333,9/26/1944,BUILDINGS,
USA,PHILIPPINE ISLANDS,CABALLO,14.33333333,120.5833333,2/4/1945,INSTALLATIONS,
USA,BURMA,NAMTI,27.33333333,97.66666667,1/16/1945,SUPPLY AREA,
USA,NEW GUINEA,WARPARIM BAY,-0.5,130.5,6/6/1944,UNIDENTIFIED TARGET,
USA,NEW GUINEA,CROWN PRINCE HA,-4.5,145.4166667,4/23/1944,COASTAL GUNS,
USA,VOLCANO AND BONIN ISLANDS,CHICHI JIMA,27.06666667,142.2166667,6/13/1945,SUPPLY DUMP,
USA,PHILIPPINE ISLANDS,FABRICA,10.891667,123.355556,1/6/1945,UNIDENTIFIED TARGET,
USA,JAVA,BANDA,-8.6,115.3,7/7/1944,SHIPPING,
USA,NEW GUINEA,RANSIKI,-1.583333333,134.1666667,8/31/1944,AIRDROME,
USA,BURMA,NAUNG PAKAT,25.28333333,97.4,4/22/1944,SUPPLIES,
USA,JAVA,FLORES SFA,-7,124,12/22/1944,UNIDENTIFIED TARGET,
USA,NEW GUINEA,DRIMBOL PLANTAT,-3.283333333,142.7333333,6/16/1944,JAP PERSONNEL,
USA,PHILIPPINE ISLANDS,CAGAYAN,18.443056,121.810833,6/17/1945,BUILDING,
USA,JAVA,LAHANE,-8.583333333,125.6,11/11/1944,UNIDENTIFIED TARGET,
USA,ITALY,ORVIETO,42.72,12.12,4/7/1944,,10
USA,JAPAN,SHIZUOKA,34.96666667,138.3666667,6/19/1945,URBAN AREA,
USA,NEW GUINEA,FRIEDRICH KARL,-5.166666667,145.8166667,1/14/1944,BARGES,
USA,NEW GUINEA,BOIKEN,-3.416666667,143.5,6/27/1944,AREA,
USA,BURMA,GOKTEIK,22.33333333,96.86666667,9/20/1943,VIADUCT,
USA,JAPAN,NISHINO SHIMA,34.66666667,134.4666667,2/14/1945,ISLAND,
USA,PHILIPPINE ISLANDS,FABRICA,10.891667,123.355556,2/6/1945,AIRDROME,
USA,CELEBES ISLANDS,BOELLA,-3.166666667,130.4666667,11/22/1944,UNIDENTIFIED TARGET,
USA,CELEBES ISLANDS,NAMLEA,-3.266666667,127.1,10/12/1944,AIRDROME,
USA,BURMA,WAN PA HSA,20.919243,99.955754,1/14/1945,WARE HOUSE AREAS,
USA,BORNEO,BORNEO,0.01,114.01,7/2/1945,BELAWAI,
USA,PHILIPPINE ISLANDS,CAMALIG,13.16666667,123.6666667,4/27/1945,UNIDENTIFIED TARGET,
USA,FRENCH INDO CHINA,LANG SON,21.9,106.8333333,3/13/1945,SONKYCUNG BRIDGE,
USA,MARSHALL ISLANDS,JALUIT ATOLL,6.05,169.5666667,1/5/1944,UNIDENTIFIED TARGET,
USA,CHINA,MAMIEN KUAN PAS,25.55,98.76666667,5/14/1944,UNIDENTIFIED TARGET,
USA,BURMA,NAMSHAM,25.75,95.91666667,1/21/1945,UNIDENTIFIED TARGET,
USA,MARIANAS ISLANDS,PAGAN ISLAND,18.13333333,145.7833333,8/7/1944,AIRFIELD,
USA,SOLOMON ISLANDS,KAHILI,-6.8,155.7833333,5/19/1944,UNIDENTIFIED TARGET,
USA,PHILIPPINE ISLANDS,ILAGAN,17.16666667,121.9166667,4/22/1945,BUILDINGS,
USA,JAVA,OAHA,-8.733333333,118.4666667,12/24/1944,UNIDENTIED TARGET,
USA,JAPAN,SHIMIZU,35,138.5,7/25/1945,URBAN AREA,
USA,PHILIPPINE ISLANDS,17 35 N 121 42,17.58333333,121.7,6/24/1945,GUN EMPLACEMENTS,
USA,CAROLINE ISLANDS,WOLEAI ISLAND,7.366666667,143.9166667,5/1/1944,AIRDROME,
USA,CHINA,YUTZE,37.65,112.7333333,7/22/1945,BRIDGES,
USA,CHINA,HSUCHANG,34,113.7833333,12/21/1944,WAREHOUSE AREA,
USA,CELEBES ISLANDS,KAOE,1.183333333,127.9166667,9/5/1944,UNIDENTIFIED TARGET,
USA,CHINA,NENGHU,22.4,101.6833333,10/31/1944,AREA,
USA,PHILIPPINE ISLANDS,BOSO BOSO,14.66666667,121.25,4/18/1945,AREA,
USA,JAPAN,UJIYAMADA,34.5,136.7,8/1/1945,URBAN AREA,
USA,NEW GUINEA,WEWAK,-3.583333333,143.6666667,8/2/1944,UNIDENTIFIED TARGET,
USA,NEW GUINEA,HANSA BAY,-4.166666667,144.9166667,3/3/1944,UNIDENTIFIED TARGET,
USA,BURMA,INGYINGON,25.125018,96.644906,8/21/1944,UNIDENTIFIED TARGET,
USA,BORNEO,BESAR,5.8,112.6666667,11/13/1944,BLDG,
USA,CHINA,EEISHIHKUAN [BEITAN],34.741576,112.944802,4/4/1945,RAILROAD BRIDGE,
USA,BURMA,MYOTHIT,20.2,95.45,10/1/1944,UNIDENTIFIED TARGET,
USA,BURMA,KAMUN,17.66666667,96.75,4/11/1944,UNIDENTIFIED,
USA,BURMA,OKSHITKIN,18.41666667,96.5,8/5/1944,BRIDGE,
GREAT BRITAIN,LIBYA,BENGHAZI,32.11,20.05,10/4/1941,,
USA,FORMOSA AND RYUKYU ISLANDS,TAIHOKU,25.03333333,121.5,5/23/1945,UNIDENTIFIED TARGET,
USA,BURMA,MINGALADON,16.9,96.13333333,2/28/1945,AREA,
USA,NEW GUINEA,GREEN BEACH,-3.833333333,141.1666667,12/26/1943,AREA,
USA,PHILIPPINE ISLANDS,CALAUAG,13.91666667,122.25,1/16/1945,ROLLING STOCK,
USA,BISMARK ARCHIPELAGO,WILLAUMEZ PENIN,-5.25,149.9166667,6/27/1945,UNIDENTIFIED TARGET,
USA,CHINA,YANGTZE RIVER,31.786667,121.141389,8/26/1944,UNIDENTIFIED TARGET,
USA,BURMA,PAHOK,23.8,96.9,3/3/1944,SUPPLIES,
USA,PHILIPPINE ISLANDS,AMULUNG,17.83333333,121.75,6/10/1945,BRIDGE,
USA,PHILIPPINE ISLANDS,AGOS RIVER,14.75,121.5833333,7/24/1945,AREA,
USA,CHINA,LAOHOKOW,32.38333333,111.6333333,5/1/1945,TEMPLE,
USA,BURMA,SITTANG,17.45,96.88333333,4/9/1945,AREA,
USA,MARSHALL ISLANDS,MARSHALL ISLAND,10,165,12/12/1943,INSTALLATIONS,
USA,PHILIPPINE ISLANDS,SANTA FE,11.166667,123.783333,4/13/1945,ENEMY POSITIONS,
USA,BURMA,MONGMIT,23.11666667,96.66666667,1/1/1945,TOWN,
USA,CHINA,WUCHOW,23.43333333,111.3166667,10/6/1944,UNIDENTIFIED TARGET,
USA,FORMOSA AND RYUKYU ISLANDS,TAIHARO,23.66666667,121.45,7/5/1945,SUGAR REFINERY,
USA,CELEBES ISLANDS,MANADO,1.5,124.8333333,12/5/1944,POWERHOUSE,
USA,CAROLINE ISLANDS,MOEN,7.433333333,151.8666667,5/8/1944,AIRDROME,
USA,JAPAN,SASEBO,33.16666667,129.7,7/7/1944,SASEBO NAVAL DOCKYAR,
USA,CELEBES ISLANDS,LOLOBATA,1.25,128.1166667,9/12/1944,AIRDROME,
USA,BURMA,SHWEBO,22.58333333,95.66666667,11/3/1943,AIRDROME,
USA,CAROLINE ISLANDS,UTAGAL,7.366666667,143.8333333,8/10/1944,UNIDENTIFIED TARGET,
USA,CHINA,MANGSHIH,24.45,98.58333333,9/29/1944,WAREHOUSE,
USA,CHINA,KIENCHANG,28,102.3666667,3/28/1944,RAILROAD BRIDGE,
USA,PHILIPPINE ISLANDS,BAGAY,17.6,121.2,5/21/1945,UNIDENTIFIED TARGET,
USA,PHILIPPINE ISLANDS,CATAGGAMAN,17.58333333,121.6666667,4/10/1945,UNIDENTIFIED TARGET,
USA,BURMA,NAMPANG,22.25,98.4,6/23/1945,TROOP CONCENTRATIONS,
USA,NEW GUINEA,BOSNEK,-1.166666667,136.25,5/18/1944,SUPPLY AREA,
USA,BURMA,KALAW,20.63333333,96.56666667,3/2/1945,ENEMY POSITIONS,
USA,NEW GUINEA,GALI,-5.833333333,146.75,1/9/1944,VILLAGE AREA,
USA,NEW GUINEA,BUT,-3.416666667,143.25,3/26/1944,AIRDROME,
USA,NEW GUINEA,LAE A/D,-6.74143,146.989626,12/24/1942,AIRFIELD,
USA,PHILIPPINE ISLANDS,SOLVEC,17.41666667,120.4166667,3/19/1945,AREA,
USA,PHILIPPINE ISLANDS,FORT STOTSENBUR,15.16666667,120.5,2/7/1945,AREA,
USA,FORMOSA AND RYUKYU ISLANDS,TAKAO,22.63333333,120.2833333,5/1/1945,TOWN,
USA,BURMA,MANDALAY,21.98333333,96.08333333,3/19/1945,FORT DUFFERIN WALL,
USA,BURMA,MAYMYO,22.03333333,96.46666667,3/30/1943,MARSHALLING YARDS,
USA,NEW GUINEA,YUNGO,-3.45,143.45,5/21/1944,TROOP CONCENTRATION,
USA,PHILIPPINE ISLANDS,LALUN,18.25,121,5/21/1945,SUPPORT TO GROUND TR,
USA,CELEBES ISLANDS,MAPANGET,1.533333333,124.9333333,12/29/1944,AIRDROME,
USA,CHINA,PUCHOU,34.86666667,110.1166667,6/14/1945,RADIO INSTALLATIONS,
USA,NEW GUINEA,SARMI,-1.833333333,138.75,7/14/1944,BIVOUAC AREA,
USA,BURMA,MANPONG,23.341402,97.961293,12/28/1944,PILL BOXES,
USA,VOLCANO AND BONIN ISLANDS,IWO JIMA,24.78333333,141.3166667,12/19/1944,UNIDENTIFIED TARGET,
USA,CHINA,HONG KONG,22.2,114.2,5/29/1944,UNIDENTIFIED TARGET,
USA,NEW GUINEA,MADANG,-5.25,145.8333333,2/28/1944,AREA,
USA,FORMOSA AND RYUKYU ISLANDS,TAICHU,24.13333333,120.6666667,4/22/1945,AIRDROME,
USA,BURMA,LASHIO,22.93333333,97.75,2/6/1945,TRUCK PARK,
USA,NEW GUINEA,WAREN,-2.25,136.3333333,9/27/1944,VILLAGE,
USA,NEW GUINEA,SARMI,-1.833333333,138.75,6/15/1944,GROUND SUPPORT,
USA,PHILIPPINE ISLANDS,ZAMBOANGA,6.916666667,122.0833333,3/14/1945,GROUND SUPPORT,
USA,NEW GUINEA,MOM,-3.583333333,143.75,7/8/1944,UNIDENTIFIED TARGET,
USA,PHILIPPINE ISLANDS,PANAY ISLAND,11,122.5,11/8/1944,AIRFIELD,
USA,BURMA,MINGALADON,16.907305,96.133222,5/6/1942,AIRDROME,
USA,CHINA,SHAYANG,30.7,112.6333333,5/16/1945,SHIPPING,
USA,JAPAN,TOKYO,35.66666667,139.7,3/9/1945,URBAN AREA,
USA,NEW GUINEA,MORO,-4.5,145.3333333,4/23/1944,VILLAGE,
GREAT BRITAIN,LIBYA,TRIPOLI RD JNCTN Q35/36,32.37,15.13,1/11/1943,,
USA,JAPAN,KOBE,34.7,135.2,2/8/1945,URBAN AREA,
USA,CELEBES ISLANDS,HATETABAKO,1.25,128.1,12/26/1944,AIRDROME,
USA,NEW GUINEA,WEWAK,-3.583333333,143.6666667,5/13/1944,UNIDENTIFIED TARGET,
USA,FORMOSA AND RYUKYU ISLANDS,KAGI,23.38333333,120.45,4/3/1945,RAILROAD TRACKS,
USA,NEW GUINEA,SALAMAUA,-7.016666667,147.1166667,7/12/1943,UNIDENTIFIED TARGET,
USA,TUNISIA,OUDNA,36.62,10.13,4/12/1943,,780
USA,BURMA,PASANG,22.33333333,98.41666667,3/8/1945,PERSONNEL,
USA,PHILIPPINE ISLANDS,PLARIDEL,14.91666667,120.8333333,1/6/1945,BRIDGES,
USA,CHINA,PALUCHI,29.53333333,113.2,7/6/1943,UNIDENTIFIED TARGET,
GREAT BRITAIN,GREECE,ORBATELLO RR,42.45,11.22,3/11/1944,,
USA,BURMA,MYOTHIT,20.2,95.45,9/30/1944,UNIDENTIFIED TARGET,
USA,CELEBES ISLANDS,HATETABAKO,1.25,128.1,11/24/1944,AIRDROME,
USA,FORMOSA AND RYUKYU ISLANDS,GIRAN,24.76666667,121.75,4/18/1945,A C DISPERSAL AREA,
USA,BURMA,KAWLIN,23.78333333,95.68333333,11/11/1944,RAILROAD BRIDGE,
USA,PHILIPPINE ISLANDS,FORTUNE ISLAND,14.08333333,120.5,1/31/1945,GROUND SUPPORT,
USA,SOLOMON ISLANDS,MUNDA,-8.333333333,157.2666667,6/30/1943,AIRDROME,
USA,CHINA,CANTON,23.18333333,113.2333333,5/9/1945,AIRDROME,
USA,BURMA,KAMAING,25.53333333,96.71666667,11/29/1943,TROOPS,
USA,CHINA,SHANGCHIEHTOW,25.85,110.7166667,9/28/1944,BUILDINGS,
USA,PHILIPPINE ISLANDS,IPO,14.83333333,121.1666667,5/9/1945,GROUND SUPPORT,
USA,CAROLINE ISLANDS,TRUK ISLAND,7.5,151.8333333,8/25/1944,UNIDENTIFIED TARGET,
USA,PHILIPPINE ISLANDS,CEBU,10.321389,123.754722,3/19/1945,UNIDENTIFIED TARGET,
USA,PHILIPPINE ISLANDS,FUSINA,18.25,121.7166667,5/27/1945,UNDERGROUND STORES,
USA,PHILIPPINE ISLANDS,DITA,13.91666667,121.0833333,3/17/1945,UNIDENTIFIED TARGET,
USA,JAPAN,TOKYO,35.66666667,139.7,12/23/1944,OGURA OIL CO,
USA,SOLOMON ISLANDS,BUKA,-5.416666667,154.7,5/23/1944,FLOAT PLANE BASE,
USA,CHINA,KIUKIANG,29.73333333,116.1333333,12/28/1944,UNIDENTIFIED TARGET,
USA,MARSHALL ISLANDS,MILLI ISLAND,6.083333333,171.7333333,1/17/1944,ENEMY INSTALLATION,
USA,FORMOSA AND RYUKYU ISLANDS,TAIHOKU,25.03333333,121.5,6/13/1945,TOWN,
USA,BURMA,KYAUKMYAUNG,22.63333333,95.93333333,10/14/1943,DOCK AREA,
USA,PHILIPPINE ISLANDS,BAGUIO,16.41666667,120.5833333,5/28/1945,BRIDGE,
USA,PHILIPPINE ISLANDS,CLARK FIELD,15.16666667,120.5833333,3/28/1945,TROOP POSITIONS,
USA,FORMOSA AND RYUKYU ISLANDS,MANGSHIH & KUTKAI,24.433728,98.588649,2/28/1943,,
USA,CHINA,SINSIANG,27.8,120.6833333,9/26/1944,MISCELLANEOUS TARGET,
USA,PHILIPPINE ISLANDS,LAKE TAAL,13.91666667,121,4/10/1945,UNIDENTIFIED TARGET,
USA,FORMOSA AND RYUKYU ISLANDS,TAINAN,23,120.2,6/16/1945,GROUND INSTALLATION,
USA,PHILIPPINE ISLANDS,BANAAO,16.8,121.1333333,7/5/1945,HUTS,
USA,CELEBES ISLANDS,MANADO,1.5,124.8333333,2/7/1945,TOWN,
USA,CELEBES ISLANDS,RAHA VLLLAGE,-4.833333333,122.7333333,9/20/1944,BEACHED SHIPPING,
USA,FORMOSA AND RYUKYU ISLANDS,MAKO,23.56666667,119.5666667,7/13/1945,SHIPYARDS,
USA,BURMA,WANLING,21.01666667,98.06666667,1/10/1945,PORTFIELD POSITION,
USA,BURMA,MANDALAY,21.98333333,96.08333333,6/16/1943,MARSHALLING YARDS,
USA,PHILIPPINE ISLANDS,CORREGIDOR,14.41666667,120.5833333,2/1/1945,UNIDENTIFIED TARGET,
USA,PHILIPPINE ISLANDS,IPO,14.83333333,121.1666667,5/22/1945,DAM,
USA,BISMARK ARCHIPELAGO,RABAUL,-4.2,152.2,8/4/1944,SUPPLY AREA,
USA,PHILIPPINE ISLANDS,DAVAO GULF,7.083333333,125.6666667,1/9/1945,UNIDENTIFIED TARGET,
USA,BISMARK ARCHIPELAGO,CAPE GLOUCESTER,-5.416666667,148.4166667,7/21/1943,UNIDENTIFIED TARGET,
USA,NEW GUINEA,WOM,-3.5,143.5833333,8/3/1944,UNIDENTIFIED TARGET,
USA,PHILIPPINE ISLANDS,BAGUIO,16.41666667,120.5833333,4/8/1945,NAVAL HEADQUARTERS,
USA,PHILIPPINE ISLANDS,ARITAO,16.25,121,6/4/1945,GROUND SUPPORT,
USA,BURMA,BHAMO,24.25,97.23333333,8/15/1944,ROADBRIDGE,
USA,BURMA,MYINGYAN,21.45,95.38333333,8/12/1943,UNIDENTIFIED TARGET,
USA,JAPAN,KUSHIKINO,31.7,130.2666667,5/3/1945,URBAN AREA,
USA,KURILE ISLANDS,KATAOKA,50.71666667,156.1833333,4/16/1945,NAVAL BASE,
USA,NEW GUINEA,AWAR,-4.166666667,144.8333333,5/9/1944,UNIDENTIFIED TARGET,
USA,NEW GUINEA,BIAK,-1,136,5/28/1944,MOKMER AIRFIELD,
USA,GILBERT ISLANDS,TARAWA,1.5,173,9/18/1943,UNIDENTIFIED TARGET,
USA,CHINA,MANGSHIH,24.45,98.58333333,9/24/1944,PERSONNEL,
USA,CELEBES ISLANDS,CERAM SEA,-3.416666667,132.1666667,8/3/1944,UNIDENTIFIED TARGET,
USA,JAPAN,FUSAN,35.1,129.0333333,8/9/1945,HARBOR AREA,
USA,PHILIPPINE ISLANDS,BACOLOD,10.66666667,122.9166667,4/8/1945,UNIDENTIFIED TARGET,
USA,CAROLINE ISLANDS,WOLEAI ISLAND,7.366666667,143.9166667,4/28/1944,AIRDROME,
USA,CHINA,ANYANG,29.45,118.8,8/2/1945,BRIDGE,
USA,NEW GUINEA,JAPEN ISLAND,-1.75,136.1666667,5/28/1944,UNIDENTIFIED TARGET,
USA,CAROLINE ISLANDS,PONAPE ISLAND,7,158.4166667,3/21/1944,AIRFIELD,
USA,CHINA,SINTSIANG,29.11666667,113.25,7/29/1944,AREA,
USA,PHILIPPINE ISLANDS,DONGON,12.75,120.8333333,2/10/1945,TANKS FIELD ARTILLER,
USA,BURMA,SAGAING,21.88333333,95.98333333,10/3/1943,RAILROAD YARDS,
USA,CHINA,NANCHANG,28.56666667,115.8,8/3/1944,UNIDENTIFIED TARGET,
USA,PHILIPPINE ISLANDS,GARIT NORTE,16.66666667,121.6666667,5/22/1945,SUPPLIES,
USA,BISMARK ARCHIPELAGO,SILIMATI POINT,-5.583333333,148.5,1/12/1945,INSTALLATIONS,
USA,PHILIPPINE ISLANDS,MT HAPONANG BAN,14.73333333,121.1833333,5/13/1945,UNIDENTIFIED TARGET,
USA,PHILIPPINE ISLANDS,SARAVIA,10.83333333,123,5/13/1945,GROUND SUPPORT,
USA,PHILIPPINE ISLANDS,BANGUED,17.58333333,120.5833333,4/24/1945,UNIDENTIFIED TARGET,
USA,PHILIPPINE ISLANDS,LYANG,14.88333333,121.1333333,4/12/1945,UNIDENTIFIED TARGET,
USA,FORMOSA AND RYUKYU ISLANDS,AMAMI O SHIMA,28.4,129.5,8/10/1945,UNIDENTIFIED TARGET,
USA,CELEBES ISLANDS,MACASSAR,-5.083333333,119.5,11/14/1944,SEA PLANE BASE,
USA,BISMARK ARCHIPELAGO,MATUPI,-4.25,152.2,6/1/1944,SUPPLY AREA,
USA,BORNEO,MIRI,4.416666667,114,3/23/1945,AIRDROME,
USA,CHINA,PINGNAM,27.022484,119.0414,10/26/1944,UNIDENTIFIED TARGET,
USA,ITALY,CASTROVILLARI,39.8,16.2,8/28/1943,,610
USA,PHILIPPINE ISLANDS,NAGUILIAN,16.533889,120.396944,5/7/1945,UNIDENTIFIED TARGET,
USA,NEW GUINEA,SAIPA,-5.683333333,146.6666667,2/15/1944,UNIDENTIFIED TARGET,
USA,BURMA,RANGOON RIVER,16.473012,96.359404,10/4/1943,UNIDENTIFIED TARGET,
USA,BURMA,INDAW,24.21666667,96.15,10/23/1944,WOODED AREA,
USA,BISMARK ARCHIPELAGO,KAVIENG,-2.583333333,150.8333333,3/19/1944,TOWNSHIP,
USA,CHINA,LILING,27.68333333,113.5,7/8/1944,AREA,
USA,MARIANAS ISLANDS,TINIAN,15.03333333,145.8333333,7/28/1944,COAST DEFENCES,
USA,UNKNOWN,TUMLOO ISLAND,-3.116666667,142.4333333,3/26/1944,UNIDENTIFIED TARGET,
USA,BURMA,BANMAUK,24.4,95.85,12/6/1944,TROOP SUPPORT,
NEW ZEALAND,NEW IRELAND,NEW IRELAND SWEEP,-2.733333333,150.85,7/22/1945,VARIOUS TARGETS,
USA,CHINA,NANCHANG,28.56666667,115.8,5/29/1944,HIGHWAY BRIDGE,
USA,NEW GUINEA,BOIKEN,-3.416666667,143.5,7/30/1944,STORES,
USA,BURMA,KANBALU,23.2,95.51666667,8/15/1944,RAILROAD,
USA,FRENCH INDO CHINA,TONGKING GULF,20,107,2/17/1944,UNIDENTIFIED TARGET,
USA,JAVA,LAUTEM,-8.4,126.9,9/12/1944,UNIDENTIFIED TARGET,
USA,CHINA,NANSIEN,29.31666667,112.4166667,12/18/1943,UNIDENTIFIED TARGET,
USA,CELEBES ISLANDS,WASILE BAY,1.2,128.4666667,11/27/1944,ANTI AIR CRAFT PITS,
USA,PHILIPPINE ISLANDS,GUBANO,16.83333333,120.6666667,8/8/1945,GROUND SUPPORT,
USA,PHILIPPINE ISLANDS,ORIOUNG,16.58333333,121.3333333,6/11/1945,UNIDENTIFIED TARGET,
USA,PHILIPPINE ISLANDS,CEBU,10.321389,123.754722,2/2/1945,UNIDENTIFIED TARGET,
USA,PHILIPPINE ISLANDS,FUSINA,18.25,121.7166667,5/27/1945,UNIDENTIFIED TARGET,
USA,NEW GUINEA,DAGUA,-3.416666667,143.3333333,5/15/1944,UNIDENTIFIED TARGET,
USA,CELEBES ISLANDS,MANADO,1.5,124.8333333,9/27/1944,TOWN,
USA,NEW GUINEA,BUT,-3.416666667,143.25,7/15/1944,AIRDROME,
USA,CELEBES ISLANDS,MAPANGET,1.533333333,124.9333333,11/25/1944,AIRDROME,
NEW ZEALAND,BISMARK ARCHIPELAGO,VUNAPOPE,-4.333333333,152.3333333,3/11/1944,SUPPLY DUMP,
USA,TUNISIA,SFAX ROUNDHOUSE/ M/Y,34.72,10.69,12/15/1942,,610
USA,BORNEO,BORNEO,0.01,114.01,12/18/1944,SHIPPING,
USA,CELEBES ISLANDS,TIMOR ISLAND,-5.383333333,123.6333333,12/30/1944,UNIDENTIFIED TARGET,
USA,PHILIPPINE ISLANDS,16 08 N 120 5,16.13333333,120.9666667,5/23/1945,TROOP CONCENTRATION,
USA,JAPAN,MAKARUZAKI,31.26666667,130.3,8/7/1945,UNIDENTIFIED TARGET,
USA,BURMA,PYINDAW,25.28333333,96.81666667,7/6/1944,UNIDENTIFIELD TARGET,
USA,PHILIPPINE ISLANDS,VIGA,16.81666667,121.8,5/27/1945,TROOPS,
USA,FRENCH INDO CHINA,HANOI,21.2,105.8666667,11/28/1944,WAREHOUSE,
USA,CELEBES ISLANDS,KENDARI,-4.066666667,122.6666667,1/11/1945,BUILDINGS,
USA,CHINA,HANKON,30.6,114.3333333,11/24/1944,DOCK,
USA,CHINA,SAMSHUI,23.83333333,112.8166667,10/5/1944,STORAGE AREA,
GREAT BRITAIN,GREECE,LEGHORN HARBOR,43.53,10.33,4/19/1944,,
USA,NEW GUINEA,LUAIN,-3.35,142.9333333,7/1/1944,UNIDENTIFIED TARGET,
USA,PHILIPPINE ISLANDS,NAN,13.9125,122.1726,8/28/1944,UNIDENTIFIED TARGET,
AUSTRALIA,JAVA,BANDA ISLAND,-5.066666667,131.6333333,7/31/1942,SHIPPING,
USA,NEW GUINEA,HOLLANDIA,-2.5,140.75,3/27/1944,AIRDROME,
USA,CELEBES ISLANDS,NAMLEA,-3.266666667,127.1,11/6/1944,AIRDROME,
USA,FRENCH INDO CHINA,CAO BANG,22.65,106.2666667,4/10/1945,UNIDENTIFIED TARGET,
USA,JAPAN,SHIZUOKA,34.96666667,138.3666667,1/8/1945,URBAN AREA,
USA,ITALY,PONTE GALERA,41.8,12.35,12/11/1943,,630
USA,CAROLINE ISLANDS,SALAMI PLANTATION,1.5,150,2/14/1943,UNIDENTIFIED TARGET,
USA,SOLOMON ISLANDS,CHOISEUL,-7.066666667,157.0166667,9/1/1943,UNIDENTIFIED TARGET,
USA,CHINA,SHANGHAI,31.23333333,121.5,7/24/1945,KIANGWAN AIRDROME,
USA,PHILIPPINE ISLANDS,CAVITE,14.5,120.9166667,1/27/1945,FUEL STORES,
USA,PHILIPPINE ISLANDS,GUENCA,13.83333333,121.0333333,3/17/1945,TOWN,
USA,PHILIPPINE ISLANDS,CORREGIDOR,14.41666667,120.5833333,2/13/1945,UNDERGROUND STORAGE,
GREAT BRITAIN,ALBANIA,VALONA,40.47,19.49,3/14/1941,,
NEW ZEALAND,NEW IRELAND,NEW IRELAND SWEEP,-2.733333333,150.85,12/28/1944,VARIOUS TARGETS,
USA,CAROLINE ISLANDS,PONAPE ISLAND,7,158.4166667,3/25/1944,UNIDENTIFIED TARGET,
USA,CHINA,LONING,34.36666667,111.6333333,4/23/1945,AMMO DUMPS,
USA,CELEBES ISLANDS,AMAHAI,-3.35,128.926743,8/12/1944,AIRDROME,
USA,BISMARK ARCHIPELAGO,TALASEA PT,-5.483333333,149.65,2/20/1945,BUILDINGS,
USA,MARIANAS ISLANDS,PAGAN ISLAND,18.13333333,145.7833333,4/16/1945,MISCELLANEOUS TARGET,
USA,CORAL SEA AREA,LALA AMBOINA,-16.43333333,179.7333333,11/19/1944,RUNWAY,
USA,FRENCH INDO CHINA,PHULY,20.46666667,105.95,3/5/1945,RAILROAD,
USA,CELEBES ISLANDS,KAOE,1.183333333,127.9166667,8/21/1944,AIRDROME,
USA,SUMATRA,DJAMBI,1.633333333,103.6333333,8/10/1944,DJAMBI AIRDROME,
USA,CHINA,KOWLOON,22.31666667,114.1833333,8/25/1944,DOCKS,
USA,CHINA,PEIKING,39.93333333,126.4,4/24/1945,HANKOW RAILROAD,
USA,BISMARK ARCHIPELAGO,RABAUL,-4.2,152.2,2/29/1944,AREA,
USA,PHILIPPINE ISLANDS,16 06 N 121 0,16.1,121.1,3/17/1945,GUN EMPLACEMENTS,
USA,FORMOSA AND RYUKYU ISLANDS,KAGI,23.38333333,120.45,5/10/1943,UNIDENTIFIED TARGET,
USA,BURMA,KAMAING,25.53333333,96.71666667,10/29/1943,UNIDENTIFIED TARGET,
USA,NEW GUINEA,WEWAK,-3.583333333,143.6666667,12/1/1944,TOWN AREA,
USA,JAPAN,ABURATSUI,31.56666667,131.4,8/9/1945,SUPPLY DUMP,
USA,KOREA OR CHOSEN,TAIKU,35.76666667,128.5333333,7/25/1945,RAILROAD BRIDGE,
USA,PHILIPPINE ISLANDS,LUZON,15,121,7/28/1945,GROUND SUPPORT,
USA,BURMA,MYITKYINA,25.38333333,97.4,4/11/1944,ENEMY POSITION,
USA,CHINA,MANGSHIH,24.45,98.58333333,5/29/1944,WAREHOUSE,
USA,PHILIPPINE ISLANDS,MT MALEPNUYO,14,121.25,4/29/1945,TROOP CONCENTRATIONS,
USA,ITALY,SUTRI,42.23,12.22,5/7/1944,,10
USA,NEW GUINEA,BOGADJIM,-5.416666667,145.75,12/9/1943,ROAD,
USA,NEW GUINEA,MAFFIN BAY,-2,138.8333333,4/29/1944,AREA,
USA,CHINA,WOOSUNG,31.75,121.5,4/22/1945,MILITARY DEPOT,
USA,JAPAN,OMURA,32.91666667,129.9333333,3/26/1945,OMURA AC FACTORY,
USA,NEW GUINEA,WAREN,-2.25,136.3333333,8/15/1944,AIRDROME,
USA,CELEBES ISLANDS,PIROE,-3.066666667,128.2,1/30/1945,UNIDENTIFIED TARGET,
USA,PHILIPPINE ISLANDS,WAWA,14.75,121.1666667,3/28/1945,UNIDENTIFIED TARGET,
USA,FRENCH INDO CHINA,HANOI,21.2,105.8666667,7/23/1945,BARGES,
USA,NEW GUINEA,FINKSCHHAFEN,-6.5,147.8333333,8/26/1943,UNIDENTIFIED TARGET,
USA,JAPAN,SHINGU CITY,33.73333333,136,1/8/1945,URBAN AREA,
USA,FORMOSA AND RYUKYU ISLANDS,HEITO,22.66666667,120.4833333,1/19/1945,AIRDROME,
USA,PHILIPPINE ISLANDS,SASA,7.116666667,125.65,9/3/1944,AIRDROME,
USA,BORNEO,VICTORIA,5.283333333,115.2333333,6/9/1945,PERSONNEL AREA,
USA,BURMA,MEZA,24.15,96.03333333,11/25/1944,BRIDGE,
USA,ITALY,BRONTE,37.77,14.83,8/6/1943,,650
USA,CELEBES ISLANDS,MANDAI,-5.066666667,119.5166667,6/27/1945,AIRDROME,
USA,JAPAN,MIDORI GAWA,32.7,130.6,8/8/1945,RAILROAD BRIDGE,
USA,ITALY,ROME,41.9,12.47,2/15/1944,,630
USA,CHINA,PALUCHI,29.53333333,113.2,8/8/1944,AIDROME,
USA,NEW GUINEA,ULAU,-3.3,142.8,6/16/1944,UNIDENTIFIED TARGET,
USA,BURMA,HEHO,20.71666667,96.83333333,3/14/1945,AD MANDALAY AREA,
USA,PHILIPPINE ISLANDS,17 13 N 121 5,17.21666667,121.8833333,6/20/1945,CONCENTRATION,
USA,JAPAN,KASHIWAZAKI,37.36666667,138.5666667,7/26/1945,URBAN AREA,
USA,BORNEO,SANDAKAN,5.833333333,118.0833333,1/31/1944,AIRDROME,
USA,PHILIPPINE ISLANDS,SINILOAN,14.41666667,121.4166667,4/3/1945,AREA,
USA,CELEBES ISLANDS,POMBELA A,-4.833333333,123.1,1/2/1944,UNIDENTIFIED TARGET,
USA,PHILIPPINE ISLANDS,FUGA ISLAND,18.83333333,121.4166667,5/28/1945,UNIDENTIFIED TARGET,
USA,CHINA,HANKON,30.6,114.3333333,7/10/1944,DOCK,
USA,FORMOSA AND RYUKYU ISLANDS,KATO,22.41666667,120.5666667,3/2/1945,AIRDROME,
USA,BISMARK ARCHIPELAGO,LORENGAU,-2.016666667,147.2666667,2/13/1944,AIRDROME,
USA,SOLOMON ISLANDS,VILA,-8.133333333,157.15,8/13/1943,AIRDROME,
USA,BURMA,PASAWNG,18.83333333,98.33333333,4/7/1945,UNIDENTIFIED TARGET,
USA,CHINA,LEIYANG,26.43333333,112.8333333,9/4/1944,PANTOON BRIDGES,
USA,BURMA,PORT BLAIR,11.68333333,92.71666667,10/1/1943,SHIPPING,
USA,PHILIPPINE ISLANDS,BON BONON POINT,9.083333333,123.1666667,10/25/1944,SHIPPING,
USA,BISMARK ARCHIPELAGO,BORAM,-3.183333333,151.6166667,4/9/1943,AIRFIELD,
USA,BISMARK ARCHIPELAGO,KERAVAT,-4.316666667,152.05,4/18/1944,AIRDROME,
USA,VOLCANO AND BONIN ISLANDS,IWO JIMA,24.78333333,141.3166667,9/17/1944,DISPERSAL AREA,
USA,CHINA,HAIBAN ISLAND,19,110,10/26/1944,UNIDENTIFIED TARGET,
USA,PHILIPPINE ISLANDS,PUERTA PRINCESA,9.75,118.75,2/26/1945,SAWMILL,
USA,SOLOMON ISLANDS,BUKA,-5.416666667,154.7,12/16/1943,SUPPLY AREA,
USA,CHINA,CHUANGSIEN,25.7,111.1,10/1/1944,BARRACOS,
USA,BURMA,MYITKYINA,25.38333333,97.4,3/2/1944,UNIDENTIFIED TARGET,
USA,BURMA,MOHNYIN,24.78333333,96.36666667,5/28/1944,UNIDENTIFIED TARGET,
USA,SOLOMON ISLANDS,NAURU ISLAND,-8.283333333,157.2166667,10/11/1944,PHOSPHATE PLANTS,
USA,JAVA,LAUTEM,-8.4,126.9,10/26/1944,UNIDENTIFIED TARGET,
USA,PHILIPPINE ISLANDS,INFANTA,14.75,121.6666667,6/11/1945,UNIDENTIFIED TARGET,
USA,CAROLINE ISLANDS,SATAWAN ISLAND,5.333333333,153.7333333,4/17/1944,AIRDROME,
USA,BURMA,KYAUKSE,21.6,96.13333333,1/3/1945,RAILROAD BRIDGE,
USA,VOLCANO AND BONIN ISLANDS,CHICHI JIMA,27.06666667,142.2166667,5/31/1945,MISCELLANEOUS TARGET,
USA,MARSHALL ISLANDS,MILLI ISLAND,7.583333333,171.7333333,1/16/1944,GUN POSITIONS,
USA,PHILIPPINE ISLANDS,BOSO BOSO,14.66666667,121.25,4/10/1945,AREA,
USA,NEW GUINEA,WEWAK,-3.583333333,143.6666667,4/23/1944,AIRFIELD,
USA,BURMA,LASHIO,22.93333333,97.75,11/5/1944,AIRDROME,
USA,ITALY,MARINO,41.77,12.65,6/2/1944,,10
USA,NEW GUINEA,BUKA A/D,-5.422222,154.6725,4/26/1942,AIRFIELD,
USA,MARSHALL ISLANDS,TAROA ISLAND,8.7,171.2166667,3/11/1944,UNIDENTIFIED TARGET,
USA,PHILIPPINE ISLANDS,LENATIN RIVER,14.65,121.3833333,4/28/1945,TROOPS,
USA,NEW GUINEA,FINSCHHAFEN,-6.5,147.8333333,4/18/1943,AIRDROME,
USA,PHILIPPINE ISLANDS,14 52 N 121 0,14.86666667,121.15,5/4/1945,TROOPS,
USA,NEW GUINEA,BOGADJIM,-5.416666667,145.75,11/5/1943,GROUND SUPPORT,
USA,JAVA,FLORES SFA,-7,124,10/23/1944,UNIDENTIFIED TARGET,
USA,CELEBES ISLANDS,AMBON,-3.700432,128.17547,2/7/1944,BARRACKS,
GREAT BRITAIN,GREECE,ROAD JUNCTION E OF ORVIETO,45.63,13.08,6/6/1944,,
USA,JAPAN,OTSU,35,135.8666667,2/3/1945,URBAN AREA,
USA,NEW GUINEA,WAREN,-2.25,136.3333333,8/27/1944,AIRDROME,
USA,CHINA,POAI,35.31666667,113.0333333,3/31/1945,JAP TROOPS,
USA,BURMA,MINGALADON,16.907305,96.133222,2/8/1943,AIRDROME,
USA,BORNEO,REDEB,2.166666667,117.5,6/27/1945,TOWN,
USA,BORNEO,TABANIO,-3.75,114.6666667,7/3/1945,AIRDROME,
USA,VOLCANO AND BONIN ISLANDS,IWO JIMA,24.78333333,141.3166667,12/16/1944,DISPERSAL AREA,
USA,PHILIPPINE ISLANDS,MARIVELES,14.41666667,120.5,1/22/1945,BARRACKS,
GREAT BRITAIN,LIBYA,BENGHAZI,32.11,20.05,11/8/1941,,
USA,FRENCH INDO CHINA,HANOI,21.2,105.8666667,10/24/1943,MOTOR POOL,
USA,SOLOMON ISLANDS,NUMA NUMA,-5.866666667,155.2333333,5/10/1944,UNIDENTIFIED TARGET,
USA,BORNEO,TABANIO,-3.75,114.6666667,7/1/1945,AIRDROME,
USA,CHINA,CHENG TAI,38.88333333,113.15,9/23/1944,RAILROAD BRIDGE,
USA,SOLOMON ISLANDS,REKATA BAY,-7.566666667,158.6833333,8/11/1943,SUPPLY AREA,
USA,VOLCANO AND BONIN ISLANDS,VOLCANO ISLAND,30.3,121.95,12/3/1944,AIRFIELD,
USA,NEW GUINEA,MARANGIS,-4.583333333,145.9166667,5/15/1944,VILLAGE,
USA,CHINA,23 35 N 119 3,23.58333333,119.5833333,5/31/1945,SHIP,
USA,CHINA,CANTON,23.18333333,113.2333333,7/6/1944,AIRDROME,
USA,CHINA,YOCHOW,29.38333333,113.15,8/29/1944,UNIDENTIFIED TARGET,
USA,BURMA,KONGYI,23.16666667,94.35,4/13/1944,SUPPLY DUMPS,
GREAT BRITAIN,SYRIA,SUWEIDA,32.7,36.57,7/2/1941,,
USA,SOLOMON ISLANDS,NOVA PLANTATION,-5.45,154.65,5/25/1944,UNIDENTIFIED TARGET,
USA,VOLCANO AND BONIN ISLANDS,IWO JIMA,24.78333333,141.3166667,11/19/1944,SHIPPING,
USA,CELEBES ISLANDS,KENDAHI,-4.066666667,122.6666667,5/16/1943,UNIDENTIFIED TARGET,
USA,CHINA,KWEIPING,23.4,110.0833333,10/18/1944,COMPOUND,
USA,NEW GUINEA,KAIRIRU,-3.333333333,143.5833333,4/13/1945,RADAR STATION,
USA,PHILIPPINE ISLANDS,SAN MIGUEL,13.83333333,123.6666667,1/21/1945,UNIDENTIFIED TARGET,
USA,FORMOSA AND RYUKYU ISLANDS,TAKAO,22.63333333,120.2833333,2/24/1945,RAILROADS,
USA,PHILIPPINE ISLANDS,TANGADON,17.5,121.5,3/20/1945,AREA,
USA,CELEBES ISLANDS,BOELA,-3.166666667,130.4666667,10/20/1944,AIRDROME,
USA,NEW GUINEA,GUADAGABAL,-7.25,147.0833333,2/25/1943,UNIDENTIFIED TARGET,
USA,CELEBES ISLANDS,WEDA BAY,0.083333333,128.0833333,4/21/1945,BARGE,
USA,BURMA,MAYMYO,22.03333333,96.46666667,12/9/1943,BARRACKS,
USA,VOLCANO AND BONIN ISLANDS,CHICHI JIMA,27.06666667,142.2166667,3/9/1945,MISCELLANEOUS TARGET,
USA,CAROLINE ISLANDS,MOEN,7.433333333,151.8666667,6/23/1944,AIRDROME,
USA,BURMA,NA HA,23.16666667,97.58333333,5/15/1943,RR BRIDGE,
USA,ITALY,MESSINA,38.19,15.57,2/3/1943,,710
USA,PHILIPPINE ISLANDS,BALETE PASS,16.08333333,120.9166667,5/31/1945,GUN POSTIONS,
USA,MARSHALL ISLANDS,MARSHALL ISLAND,10,165,12/13/1943,INSTALLATIONS,
USA,BURMA,NAMHPUK,23.05,98.6,2/26/1945,UNIDENTIFIED TARGET,
USA,PHILIPPINE ISLANDS,DUPAX,16.25,121.0833333,4/25/1945,BRIDGE,
USA,JAPAN,KURE,34.23333333,132.5666667,7/28/1945,MARBOR,
USA,JAVA,LAUTEM,-8.4,126.9,11/4/1944,AIRDROME,
USA,PHILIPPINE ISLANDS,SAN JOSE DEL MO,14.83333333,121,1/12/1945,BIVOUAC AREA,
NEW ZEALAND,NEW IRELAND,KAVIENG SWEEP,-2.583333333,150.8333333,6/6/1945,VARIOUS TARGETS,
USA,CORAL SEA AREA,ARAWE,-6.166666667,149.0666667,2/19/1944,UNIDENTIFIED TARGET,
USA,NEW GUINEA,VOCO POINT,-6.733333333,147.0166667,7/27/1943,LANDING BARGES,
USA,BISMARK ARCHIPELAGO,LAKUNAI,-4.233333333,152.2166667,3/20/1944,AIRDROME,
USA,CELEBES ISLANDS,BOELOEDOWANG,-5.533333333,119.5,7/4/1945,AIRDROME,
USA,BISMARK ARCHIPELAGO,LAKUNAI,-4.233333333,152.2166667,12/19/1943,AIRDROME,
USA,NEW GUINEA,BOGIA BAY,-4.283333333,144.9666667,4/29/1944,STORES AREA,
USA,VOLCANO AND BONIN ISLANDS,IWO JIMA,24.78333333,141.3166667,11/30/1944,UNIDENTIFIED TARGET,
USA,NEW GUINEA,SANANANDA ROADS,-8.666666667,148.4166667,11/23/1942,TROOPS,
USA,VOLCANO AND BONIN ISLANDS,OKIMURA,26.63333333,142.15,11/18/1944,TOWN,
USA,NEW GUINEA,DAGUA,-3.416666667,143.3333333,4/29/1944,PERSONNEL,
USA,CHINA,SINCHENG,39.21666667,116.1666667,5/3/1945,BRIDGE,
USA,BURMA,HOPIN,24.98333333,96.53333333,4/22/1944,AMMO STORES,
USA,JAVA,FUILORO,-8.433333333,127.0166667,10/4/1944,TOWN,
USA,VOLCANO AND BONIN ISLANDS,IWO JIMA,24.78333333,141.3166667,9/19/1944,AIR INSATALLATIONS,
USA,NEW GUINEA,WAKDE ISLAND,-1.916666667,139,5/6/1944,UNIDENTIFIED TARGET,
USA,CHINA,KWEILIN,25.23333333,110.2,6/20/1945,COMMUNICATIONS,
GREAT BRITAIN,GREECE,W. LAKE DOIRAN,41.22,22.7,4/7/1941,,
USA,PHILIPPINE ISLANDS,MARIKINA RIVER,14.66666667,121.0833333,5/17/1945,WATERSHED,
USA,NEW GUINEA,SCHASCHERMAN,-4.166666667,142.6666667,4/4/1945,SESERIMAN VILLAGE,
USA,PALAU ISLANDS,YAP ISLAND,9.533333333,138.1333333,8/23/1944,ENEMY INSTALLATIONS,
USA,BURMA,KALAYWA,20.63333333,92.95,2/16/1945,VILLAGE,
USA,CELEBES ISLANDS,CELEBES ISLANDS,-2,120,12/7/1944,UNIDENTIFIED TARGET,
USA,BURMA,CHAUK,20.9,98.81666667,2/25/1945,UNIDENTIFIED TARGET,
USA,SOLOMON ISLANDS,MOTUPENA POINT,-6.583333333,155.0833333,12/3/1943,UNIDENTIFIED TARGET,
USA,PHILIPPINE ISLANDS,IPO,14.83333333,121.1666667,5/24/1945,UNIDENTIFIED TARGET,
USA,JAPAN,TOSU,33.36666667,130.5,8/11/1945,RAILROAD YARDS,
USA,NEW GUINEA,NEW BIEN,-3.966666667,144.3666667,6/5/1944,UNIDENTIFIED TARGET,
USA,CHINA,KIYANG,27.08333333,118.0333333,9/8/1944,COMPOUNDS,
USA,BISMARK ARCHIPELAGO,NEW IRELAND,-2.733333333,150.85,3/21/1944,UNIDENTIFIED TARGET,
USA,VOLCANO AND BONIN ISLANDS,IWO JIMA,24.78333333,141.3166667,12/6/1944,UNIDENTIFIED TARGET,
USA,CHINA,TSINGSING,38,114.0166667,7/12/1945,RAILROAD BRIDGE,
USA,CHINA,CHENGSHIEN,34.73333333,113.7,12/21/1944,MISCELLANEOUS TARGET,
USA,CAROLINE ISLANDS,DUBLON ISLAND,7.383333333,151.8833333,7/24/1944,TOWN,
USA,MARSHALL ISLANDS,JALUIT ATOLL,6.05,169.5666667,1/18/1944,OIL STORAGE,
USA,PHILIPPINE ISLANDS,MURCIA,10.58333333,123,3/29/1945,BUILDINGS,
USA,CHINA,"""WHAMPOA GARDEN"," HONG KONG""",22.305137,114.184235,2/10/1943,,
USA,CHINA,HSUCHANG,34,113.7833333,7/26/1945,TACTICAL TARGET,
USA,NEW GUINEA,BUKA- REKATA BAY,-5.466666667,154.6666667,7/30/1942,2 SHIPS,
USA,CELEBES ISLANDS,WEDA BAY,0.083333333,128.0833333,4/24/1945,BARGE,
USA,CELEBES ISLANDS,AMBON,-3.700432,128.17547,8/28/1944,VICTORIA BARRACKS,
USA,BURMA,NONA,20.66666667,97.41666667,1/17/1945,PERSONNEL,
USA,CELEBES ISLANDS,BOEROE ISLAND,-3.25,127.104408,7/6/1944,UNIDENTIFIED TARGET,
USA,BORNEO,TANAH MERAM BAY,2.033333333,117.3333333,2/4/1944,PERSONNEL,
USA,BURMA,NAMHSAM,21.36666667,97.05,2/24/1945,JAP TROOPS,
USA,CELEBES ISLANDS,LANGOAN,1.15,124.8166667,10/13/1944,TOWN,
USA,PHILIPPINE ISLANDS,CALDERA POINT,6.916666667,121.9166667,2/28/1945,UNIDENTIFIED,
USA,BISMARK ARCHIPELAGO,TOBERA,-4.4,152.3166667,5/28/1944,AIRDROME DISPERSAL,
USA,CHINA,KWEILIN,25.23333333,110.2,6/20/1945,BARGES,
GREAT BRITAIN,GREECE,RIMINI - ANCONA RR,44.05,12.57,1/16/1944,,
USA,BISMARK ARCHIPELAGO,ALI ISL,-3.133333333,142.5,2/26/1943,MACHINE GUN EMPLACEM,
USA,PHILIPPINE ISLANDS,DOMANG,16.4,121.1166667,4/24/1945,UNIDENTIFIED TARGET,
USA,KURILE ISLANDS,KURABU,50,155.3833333,10/14/1944,UNIDENTIFIED TARGET,
USA,CHINA,CANTON,23.18333333,113.2333333,1/18/1945,AREA,
USA,FRENCH INDO CHINA,NA CHAM,22.05,106.6166667,5/2/1944,RAILROAD YARDS,
AUSTRALIA,NEW GUINEA,BUKA A/D,-5.422222,154.6725,10/2/1942,AIRFIELD,
USA,VOLCANO AND BONIN ISLANDS,CHICHI JIMA,27.06666667,142.2166667,1/8/1945,MISCELLANEOUS TARGET,
USA,CHINA,TINGKA,31.5662885,100.133291,11/19/1944,BRIDGE,
USA,CHINA,LUNGLING,24.63333333,98.83333333,11/12/1943,UNIDENTIFIED TARGET,
GREAT BRITAIN,GREECE,TARANTO,40.47,17.23,12/30/1940,,
USA,PHILIPPINE ISLANDS,ULUGAN BAY,10.08333333,118.75,4/3/1944,UNIDENTIFIED TARGET,
USA,CELEBES ISLANDS,KENDAHI,-4.066666667,122.6666667,5/30/1943,UNIDENTIFIED TARGET,
USA,BURMA,HO ONG,22.83333333,96.75,1/31/1945,SUPPLY DUMPS,
USA,PHILIPPINE ISLANDS,ALICANTE,10.91666667,123,3/28/1945,AIRDROME,
USA,CHINA,SHANGHAI,31.23333333,121.5,8/5/1945,UNIDENTIFIED TARGET,
USA,SOLOMON ISLANDS,SAUA RIVER,-6.25,155.1833333,2/24/1944,SUPPLY AREA,
USA,CELEBES ISLANDS,GALELA,1.833333333,127.8,10/21/1944,AIRDROME,
USA,NEW GUINEA,WOM,-3.5,143.5833333,2/21/1945,UNIDENTIFIED TARGET,
USA,LIBYA,TOBRUK,32.04,23.95,10/11/1942,,730
USA,NEW GUINEA,DAGUA,-3.416666667,143.3333333,6/18/1944,UNIDENTIFIED TARGET,
USA,FORMOSA AND RYUKYU ISLANDS,24 12 N 120 3,24.2,120.6333333,6/15/1945,GUN EMPLACEMENTS,
USA,PHILIPPINE ISLANDS,KALIVA,14.58333333,121.5833333,5/19/1945,AREA,
USA,CELEBES ISLANDS,MANDAI,-5.066666667,119.5166667,4/29/1945,AIRDROME,
USA,BURMA,MYITNGE BRIDGE,21.876687,95.996137,3/6/1943,BRIDGE,
USA,JAPAN,KUWANA,35.06666667,136.7,7/23/1945,URBAN AREA,
USA,SOLOMON ISLANDS,RANIU HARBOR,-5.5,154.9,5/17/1944,UNIDENTIFIED TARGET,
USA,BURMA,BHAMO,24.25,97.23333333,8/16/1944,UNIDENTIFIED TARGET,
USA,BISMARK ARCHIPELAGO,SIMPSON HARBOR,-4.25,152.25,1/27/1945,SHIPPING,
USA,MARSHALL ISLANDS,MALOELAP ATOLL,8.75,171.05,3/31/1944,UNIDENTIFIED TARGET,
USA,PHILIPPINE ISLANDS,MT MATABA,12.5,123.25,4/7/1945,UNIDENTIFIED TARGET,
USA,BURMA,MOGAUNG,25.3,96.93333333,4/8/1944,SUPPLIES,
USA,NEW GUINEA,AWAR,-4.166666667,144.8333333,5/13/1944,UNIDENTIFIED TARGET,
USA,JAPAN,NACHIJO JIMA,33.1,139.8,1/28/1945,ISLAND,
USA,VOLCANO AND BONIN ISLANDS,IWO JIMA,24.78333333,141.3166667,1/31/1945,UNIDENTIFIED TARGET,
USA,JAPAN,TAMASHIMA,34.53333333,133.6666667,6/21/1945,URBAN AREA,
GREAT BRITAIN,LIBYA,TRIPOLI,32.92,13.08,11/21/1942,,
GREAT BRITAIN,YUGOSLAVIA,ROADS - MOJKOVAC TO KLOPAT,42.56,19.38,12/20/1944,,
USA,SOLOMON ISLANDS,PAPATURA FA ISL,-7.583333333,158.7333333,8/12/1943,SUPPLY AREA,
USA,PHILIPPINE ISLANDS,JOLO ISLAND,5.916666667,121.1666667,4/6/1945,SUPPLY AREA,
USA,JAPAN,TSU,34.7,136.5,8/10/1945,RADIO STATION,
USA,BURMA,PAHOK,23.8,96.9,10/20/1943,UNIDENTIFIED TARGET,
USA,PHILIPPINE ISLANDS,IPO,14.83333333,121.1666667,5/7/1945,DAM,
USA,CAROLINE ISLANDS,WOLEAI ISLAND,7.366666667,143.9166667,4/20/1944,AIRDROME,
USA,NEW GUINEA,JEFMAN,-0.933333333,131.1166667,7/4/1944,AIRDROME,
USA,PHILIPPINE ISLANDS,BONTOC,17.08333333,121,5/30/1945,UNIDENTIFIED TARGET,
USA,MARSHALL ISLANDS,TAROA ISLAND,8.7,171.2166667,3/30/1944,UNIDENTIFIED TARGET,
USA,ALEUTIAN ISLANDS,KISKA ISLAND,52,177.5,8/10/1943,CAMP AREA,
USA,BURMA,MAWLU,24.46666667,96.18333333,4/21/1944,GUN EMPLACEMENTS,
USA,NEW GUINEA,BUNA,-8.666666667,148.4166667,11/30/1942,AIRDROME,
USA,ITALY,CIVITAVECCHIA,42.1,11.78,12/9/1943,,650
USA,LIBYA,CONVOY OR TOBRUK,32.25,23.95,10/26/1942,,730
GREAT BRITAIN,BURMA,YE AIRFIELD,15.3,97.867,2/27/1942,AIRFIELD,
USA,NEW GUINEA,GASMATA HARBOR - SHIPPING,-6.270793,150.332073,12/25/1942,ENEMY MERCHANT SHIPPING,
USA,VOLCANO AND BONIN ISLANDS,CHICHI JIMA,27.06666667,142.2166667,11/8/1944,UNIDENTIFIED TARGET,
USA,MARCUS ISLANDS,MARCUS ISLAND,24.2,153.75,2/20/1945,AIRFIELD,
USA,NEW GUINEA,BABO,-2.583333333,133.4166667,9/12/1944,AIRDROME,
USA,NEW GUINEA,POTSOAM HARBOR,-4.25,145,4/8/1944,UNIDENTIFIED TARGET,
USA,BURMA,NAMANA,25.16666667,96.66666667,4/18/1944,STORES AREA,
USA,BURMA,SEPEIN,24.45,96.18333333,4/14/1944,VILLAGE,
USA,PHILIPPINE ISLANDS,CERVANTES,17,120.75,6/2/1945,MINING AREA,
USA,CHINA,LAMENG,24.71666667,98.93333333,3/2/1943,BARRACKS AREA,
USA,SOLOMON ISLANDS,NUMA NUMA,-5.866666667,155.2333333,6/2/1943,SHIPPING,
USA,NEW GUINEA,BIAK,-1,136,6/11/1944,UNIDENTIFIED TARGET,
USA,MARSHALL ISLANDS,EMIDJ ISLAND,6,169.7333333,2/25/1944,GUN POSITIONS,
USA,BORNEO,TARAKAN ISLAND,3.416666667,117.5833333,4/24/1945,BUILDINGS,
USA,VOLCANO AND BONIN ISLANDS,HAHA JIMA,26.65,142.15,4/19/1945,WAREHOUSES,
USA,JAPAN,CHIRAN,31.35,130.4333333,8/8/1945,CHIRAN AIRFIELD,
USA,BORNEO,MANGGAR,-1.183333333,117,7/7/1945,UNIDENTIFIED TARGET,
USA,BURMA,KENGTUNG,21,99.5,3/2/1944,AIRDROME,
USA,PHILIPPINE ISLANDS,ULUGAN BAY,10.08333333,118.75,5/6/1944,PERSONNEL,
USA,BURMA,KAMAING,25.53333333,96.71666667,3/11/1944,ENEMY INSTALLATIONS,
USA,BORNEO,BALIK PAPAN,-1.25,116.8333333,6/21/1945,GUN EMPLACEMENTS,
USA,BURMA,AUCHE,25.71666667,96.85,4/12/1944,UNIDENTIFIED TARGET,
USA,NEW GUINEA,BOGADJI,-5.416666667,145.75,9/20/1943,RIVER,
USA,PHILIPPINE ISLANDS,MATINA,7.083333333,125.5833333,8/25/1944,TOWN,
USA,BURMA,MYITKYINA,25.38333333,97.4,5/11/1944,SUPPLY DUMPS,
USA,ITALY,AQUA FONDALA (AQUAFONDATA),41.55,13.95,12/10/1943,,600
USA,CELEBES ISLANDS,LANGOAN,1.15,124.8166667,4/9/1945,AIRDROME,
USA,JAPAN,OITA,33.23333333,131.6,7/16/1945,URBAN AREA,
USA,BURMA,MYOHAUNG,21.935916,96.078743,4/24/1944,UNIDENTIFIED TARGET,
USA,BURMA,SAGAING,21.88333333,95.98333333,2/19/1943,FERRY STATION,
USA,FRENCH INDO CHINA,OUANG YEN,20.95,106.8,11/29/1944,CARBIDE PLANT,
USA,NEW GUINEA,LARAT,-5.833333333,132.9166667,8/8/1943,UNIDENTIFIED TARGET,
USA,SOLOMON ISLANDS,BONIS,-5.433333333,154.7166667,2/15/1944,AIRDROME,
USA,PHILIPPINE ISLANDS,SINILOAN,14.41666667,121.4166667,5/7/1945,AREA,
USA,NEW GUINEA,BUNA,-8.666666667,148.4166667,12/17/1942,UNIDENTIFIED TARGET,
USA,BURMA,KIOMI,22.83333333,97.66666667,1/31/1945,CLOTHING DUMP,
USA,PALAU ISLANDS,PELELIU ISLAND,7,134.2333333,6/25/1944,AIRDROME,
USA,FRENCH INDO CHINA,HON GAY,20.98333333,107.0833333,3/27/1945,POWER PLANT,
USA,BURMA,KANBALU,23.2,95.51666667,8/8/1944,RAILROAD,
USA,NEW GUINEA,GASMATA A/D,-6.270793,150.332073,12/31/1942,AIRFIELD,
GREAT BRITAIN,SICILY,AUGUSTA,37.22,15.22,5/27/1943,,
USA,CAROLINE ISLANDS,WOLEAI ISLAND,7.366666667,143.9166667,7/5/1944,ANTI AIRCRAFT BATTER,
USA,PHILIPPINE ISLANDS,14 30 N 121 0,14.5,121.0666667,2/20/1945,UNIDENTIFIED TARGET,
USA,BURMA,MANDALAY,21.98333333,96.08333333,8/7/1943,SHIPPING,
USA,NEW GUINEA,WEWAK,-3.583333333,143.6666667,11/29/1944,TOWN AREA,
USA,NEW GUINEA,CAPE SANSAPOR,-3.5,132.0833333,7/20/1944,UNIDENTIFIED TARGET,
USA,NEW GUINEA,CAPE WARD HUNT,-8.083333333,148.1666667,9/11/1943,UNIDENTIFIED TARGET,
USA,FRENCH INDO CHINA,HON GAY,20.98333333,107.0833333,4/27/1945,UNIDENTIFIED TARGET,
USA,NEW GUINEA,SARMI,-1.833333333,138.75,7/4/1944,UNIDENTIFIED TARGET,
USA,NEW GUINEA,BUNA AIRFIELD,-8.682686,148.423689,9/29/1942,AIRFIELD,
USA,PALAU ISLANDS,YAP ISLAND,9.533333333,138.1333333,8/10/1944,GAGIL TOMIL RUNWAY,
USA,CELEBES ISLANDS,LANGOAN,1.15,124.8166667,12/28/1944,AIRDROME,
USA,CAROLINE ISLANDS,WOLEAI ISLAND,7.366666667,143.9166667,4/20/1944,SUPPLY AREA,
USA,PHILIPPINE ISLANDS,LAHUC,10.41666667,124.0333333,1/25/1945,AIRDROME,
USA,ITALY,SPADAFORA,38.22,15.37,8/13/1943,,10
USA,CHINA,YOCHOW,29.38333333,113.15,11/12/1943,ANTI AIRCRAFT POSITI,
USA,VOLCANO AND BONIN ISLANDS,IWO JIMA,24.78333333,141.3166667,12/13/1944,AIR INSATALLATIONS,
USA,SOLOMON ISLANDS,KAHILI,-6.8,155.7833333,5/11/1943,UNIDENTIFIED TARGET,
USA,MARSHALL ISLANDS,KWAJALEIN,8.716666667,167.7333333,12/23/1943,SHIPPING,
USA,JAPAN,MATSUZAKA,34.56666667,136.5333333,7/12/1945,URBAN AREA,
USA,FORMOSA AND RYUKYU ISLANDS,TAIEN,25.08333333,121.1666667,6/18/1945,INSTALLATIONS,
USA,FORMOSA AND RYUKYU ISLANDS,SOTON,23.98333333,120.6833333,6/17/1945,BRIDGE,
USA,MARSHALL ISLANDS,TAROA ISLAND,8.7,171.2166667,3/7/1944,AIRDROME,
AUSTRALIA,NEW GUINEA,TULAGI BUNGANA ISLAND,-9.083333333,160.15,6/30/1942,BUILDINGS,
GREAT BRITAIN,GREECE,KALUMAKI A/D [ATHENS],39.57,25,9/13/1944,,
USA,CHINA,LIUCHOW,24.3,109.2666667,6/21/1945,BARGES,
USA,CHINA,MANGSHIH,24.45,98.58333333,8/18/1944,UNIDENTIFIED TARGET,
USA,BURMA,ANLEBU,24.08333333,95.41666667,11/10/1944,UNIDENTIFIED TARGET,
USA,PHILIPPINE ISLANDS,COTABATO,7.166666667,124.25,4/16/1945,TOWN,
USA,BORNEO,BALIK PAPAN,-1.25,116.8333333,12/8/1945,UNIDENTIFIED TARGET,
USA,CELEBES ISLANDS,NAMLEA,-3.266666667,127.1,9/27/1944,AIRDROME,
USA,NEW GUINEA,MANOKWARI,-0.833333333,134.0833333,5/9/1943,UNIDENTIFIED TARGET,
USA,NEW GUINEA,ALEXISHAFEN,-5.083333333,145.7833333,7/22/1944,HANSA BAY,
USA,PHILIPPINE ISLANDS,BALETE PASS,16.08333333,120.9166667,5/4/1945,AREA,
USA,NEW GUINEA,FINKSCHHAFEN,-6.5,147.8333333,3/8/1943,UNIDENTIFIED TARGET,
USA,FRENCH INDO CHINA,SAIGON,10.81666667,106.6833333,4/26/1945,HARBOR,
USA,MARSHALL ISLANDS,MILLI ISLAND,6.083333333,171.7333333,1/24/1944,UNIDENTIFIED TARGET,
USA,CELEBES ISLANDS,MENADO,1.493056,124.841261,9/9/1944,UNIDENTIFIED TARGET,
USA,BURMA,PYINDAW,25.28333333,96.81666667,2/9/1944,UNIDENTIFIELD TARGET,
USA,PHILIPPINE ISLANDS,ISABELA,6.75,122,3/16/1945,TOWN,
USA,BISMARK ARCHIPELAGO,VUNAPOPE,-4.333333333,152.3333333,3/14/1944,UNIDENTIFIED TARGET,
USA,JAPAN,YAMAKAWA,31.2,130.6333333,8/7/1945,URBAN AREA,
AUSTRALIA,NEW GUINEA,GONA AREA,-8.616666667,148.2833333,11/26/1942,,
USA,PHILIPPINE ISLANDS,BAUANG,16.5,120.3333333,2/23/1945,AREA,
USA,BISMARK ARCHIPELAGO,LAKUNAI,-4.233333333,152.2166667,4/20/1944,AIRDROME,
USA,BURMA,LOILAW,25.26666667,96.91666667,11/2/1943,BRIDGE,
USA,CHINA,HENGYANG,26.93333333,112.5833333,8/20/1944,UNIDENTIFIED TARGET,
USA,NEW GUINEA,DUALI,-7.166666667,147.0833333,4/22/1943,UNIDENTIFIED TARGET,
USA,BISMARK ARCHIPELAGO,2 17 S 143 2,-2.283333333,141.3333333,6/28/1945,UNIDENTIFIED TARGET,
USA,CELEBES ISLANDS,AKESELAKA,1.016666667,127.9666667,9/11/1944,UNIDENTIFIED,
USA,PHILIPPINE ISLANDS,ILIGAN BAY,8.25,124.25,5/10/1945,UNIDENTIFIED TARGET,
USA,BURMA,MAYMYO,22.03333333,96.46666667,9/25/1943,BARRACKS,
USA,CHINA,KWEILIN,25.23333333,110.2,7/8/1945,COMMUNICATIONS,
USA,BORNEO,MANGGAR,-1.183333333,117,6/8/1945,RUNWAY,
USA,BURMA,HSIPAW,22.61666667,97.3,3/25/1945,GROUND SUPPORT 5 DI,
USA,FRENCH INDO CHINA,LANG SON,21.9,106.8333333,7/22/1945,COMMUNICATIONS,
USA,BORNEO,LUTONG,4.483333333,114,12/8/1944,OIL REFINERY,
USA,NEW GUINEA,HANSA BAY,-4.166666667,144.9166667,6/9/1944,AIRDROME,
NEW ZEALAND,NEW IRELAND,KAVIENG SWEEP,-2.583333333,150.8333333,6/26/1945,VARIOUS TARGETS,
USA,PHILIPPINE ISLANDS,TERESA,14.58333333,121.1666667,3/9/1945,BRIDGE ROAD,
USA,FRENCH INDO CHINA,MONCAY AREA,21.53333333,107.9666667,7/24/1945,RAIL INSTALLATIONS,
USA,CELEBES ISLANDS,NAKASSAR STRAIT,3.95,119.5333333,3/20/1945,UNIDENTIFIED TARGET,
USA,BISMARK ARCHIPELAGO,LORENGAU,-2.016666667,147.2666667,2/13/1944,GROUND SUPPORT,
USA,BURMA,HSEOWI,23.3,97.96666667,11/26/1944,BRIDGE,
USA,BURMA,SETON,25.45,96.76666667,3/9/1944,UNIDENTIFIED TARGET,
GREAT BRITAIN,SICILY,CATANIA,37.47,15.06,2/21/1941,,
USA,BURMA,KYAUNGLE,24.51666667,95.65,10/22/1944,BUILDINGS,
USA,SOLOMON ISLANDS,VITIAZ STRAITS,-5.65,157.3333333,1/27/1943,UNIDENTIFIED TARGET,
USA,BISMARK ARCHIPELAGO,GASMATA,-6.333333333,150.3333333,11/30/1943,UNIDENTIFIED TARGET,
USA,CHINA,32 22 N 121 3,31.36666667,121.55,5/24/1945,TEXAS OIL CO,
USA,PHILIPPINE ISLANDS,INFANTA,14.75,121.6666667,7/11/1945,TOWN,
USA,CAROLINE ISLANDS,PULUWAT ISLAND,7.35,149.2,5/30/1944,AIRDROME,
USA,BURMA,NAMMA,24.7333333,95.8833333,5/28/1944,RAILROAD TRACKS,
USA,BURMA,PAGAN,20.73333333,94.86666667,2/25/1945,UNIDENTIFIED TARGET,
USA,CHINA,SAMSHUI,23.83333333,112.8166667,9/6/1944,UNIDENTIFIED TARGET,
USA,ITALY,41 20 N 013 40 E,41.33,13.67,11/13/1943,,610
USA,FRENCH INDO CHINA,HOCHIH,24.71666667,107.8,2/26/1945,UNIDENTIFIED TARGET,
USA,NEW GUINEA,KAMIRI,-0.95,134.8,6/28/1944,UNIDENTIFIED TARGET,
USA,FORMOSA AND RYUKYU ISLANDS,TAICHU,24.13333333,120.6666667,4/22/1945,RAILROAD YARDS,
USA,NEW GUINEA,WOM,-3.5,143.5833333,2/19/1945,UNIDENTIFIED TARGET,
USA,NEW GUINEA,SANGAN,-4.25,144.9166667,5/18/1944,VILLAGE,
USA,NEW GUINEA,WAIROPE BRIDGE EAST END,-8.933333333,148.05,10/8/1942,VILLAGE,
USA,CELEBES ISLANDS,BOELA,-3.166666667,130.4666667,2/2/1945,AIRDROME,
USA,CHINA,LUNGLING,24.63333333,98.83333333,11/7/1944,FORTIFIED POSITIONS,
USA,MARSHALL ISLANDS,TAROA ISLAND,8.7,171.2166667,3/15/1944,AIRDROME,
USA,PHILIPPINE ISLANDS,ECHAGUE,16.75,121.6666667,3/3/1945,UNIDENTIFIED TARGET,
USA,LIBYA,TOBRUK,32.04,23.95,8/2/1942,,710
USA,BURMA,MONG TAT,23.18333333,97.4,1/15/1945,PERSONNEL,
USA,BURMA,PANGMIT,22.53333333,97.45,3/25/1945,PERSONNEL,
USA,BURMA,NALANG,22.7,97.55,1/26/1945,AMMO DUMP TRUCKS,
USA,CELEBES ISLANDS,MITI ISLAND,1.566666667,128.0666667,8/16/1944,PERSONNEL AREA,
USA,JAPAN,CHISHI,35.73333333,140.8333333,4/13/1945,URBAN AREA,
USA,BURMA,MANOI,23.81666667,97.63333333,11/11/1944,RADIO INSTALLATIONS,
GREAT BRITAIN,GREECE,CROTONE,39.08,17.13,7/15/1943,,
USA,PHILIPPINE ISLANDS,TUBAO,16.33333333,120.4166667,2/15/1945,TROOPS,
USA,CELEBES ISLANDS,MASAMBA,-2.543735,120.357299,5/4/1945,RUNWAY,
USA,NEW GUINEA,BUNA,-8.666666667,148.4166667,12/1/1942,TROOPS,
USA,BURMA,MYITKYINA,25.38333333,97.4,7/12/1944,GUN POSITIONS,
USA,CHINA,HANKOW,30.581179,114.272597,7/16/1942,DOCKS AND WAREHOUSES,
USA,BURMA,KAMAING,25.53333333,96.71666667,5/5/1944,ROAD,
USA,BURMA,KYAUKTAINGAN,17.31666667,96.46666667,4/12/1945,STORES AREA,
USA,PHILIPPINE ISLANDS,PACO,16.25,120.75,6/12/1945,ENEMY POSITIONS,
USA,THAILAND OR SIAM,TIEH LA TO,18.16666667,105.5,4/23/1945,SHIPPING,
USA,JAPAN,SHIMIZU,34.98333333,138.4833333,4/10/1945,ALUMINUM PLANT,
USA,BURMA,MABEIN,23.48333333,96.6,12/25/1944,UNIDENTIFIED TARGET,
USA,NEW GUINEA,NEW GUINEA,-5,140,7/13/1943,AREA,
USA,FORMOSA AND RYUKYU ISLANDS,TAKAO,22.63333333,120.2833333,5/20/1945,AIRDROME,
USA,ITALY,SCIACCA,37.52,13.05,7/11/1943,,780
GREAT BRITAIN,GREECE,RIMINI,44.05,12.57,2/8/1944,,
USA,PHILIPPINE ISLANDS,CALAUAG,13.91666667,122.25,1/15/1945,BRIDGE,
USA,CELEBES ISLANDS,TOBELO,1.733333333,128.0166667,10/22/1944,BUILDINGS,
USA,PHILIPPINE ISLANDS,NORZAGARAY,14.91666667,121.0833333,2/25/1945,TROOP CONCENTRATION,
USA,CHINA,YOCHOW,29.38333333,113.15,7/3/1944,RAILROAD YARDS,
USA,MARSHALL ISLANDS,TAROA ISLAND,8.7,171.2166667,12/22/1943,UNIDENTIFIED TARGET,
USA,PHILIPPINE ISLANDS,SARONG,8.5,117.5,7/15/1944,AREA,
USA,JAVA,FUILORO,-8.433333333,127.0166667,1/10/1945,UNIDENTIFIED TARGETS,
USA,BISMARK ARCHIPELAGO,LAKUNAI,-4.233333333,152.2166667,3/21/1944,AIRDROME,
USA,MARIANAS ISLANDS,SAIPAN,15.2,145.75,4/17/1944,UNIDENTIFIED TARGET,
USA,PHILIPPINE ISLANDS,SASA,7.116666667,125.65,12/25/1944,AIRDROME,
USA,CELEBES ISLANDS,LIMBOENG,-5.3,119.4166667,12/30/1944,UNIDENTIFIED TARGET,
USA,FORMOSA AND RYUKYU ISLANDS,TAINAN,23,120.2,4/12/1945,AIRDROME,
NEW ZEALAND,BOUGAINVILLE,MOSIGETTA MISSION,-6.583333333,155.25,3/10/1944,,
USA,FRENCH INDO CHINA,HAIPHONG,20.86666667,106.6833333,9/14/1943,SHIPPING,
USA,JAPAN,KUSHIKINO,31.7,130.2666667,8/12/1945,UNIDENTIFIED TARGET,
USA,PHILIPPINE ISLANDS,TORAN,18.31666667,121.65,5/5/1945,GROUND SUPPORT,
USA,PHILIPPINE ISLANDS,SAN FRANCISCO,12.75,123.9166667,4/11/1945,UNIDENTIFIED TARGET,
USA,VOLCANO AND BONIN ISLANDS,VOLCANO ISLAND,30.3,121.95,11/29/1944,AIRFIELD,
USA,CAROLINE ISLANDS,WOLEAI ISLAND,7.366666667,143.9166667,3/5/1945,UNIDENTIFIED TARGET,
USA,FORMOSA AND RYUKYU ISLANDS,TAKAO,22.63333333,120.2833333,3/6/1945,SUGAR PLANT,
USA,CELEBES ISLANDS,NAMLEA,-3.266666667,127.1,12/28/1944,UNIDENTIFIED TARGET,
USA,BISMARK ARCHIPELAGO,LUGOS,-2,147.25,2/15/1944,UNIDENTIFIED TARGET,
USA,PHILIPPINE ISLANDS,BOLOG,16.75,121.1333333,6/24/1945,TROOPS,
USA,BURMA,PYASAKAN,19,96.55,3/21/1945,DUMP AREA,
USA,BURMA,ALANBO,24.95,96.48333333,7/12/1944,R R BRIDGE,
USA,NEW GUINEA,ANEIN RIVER,-3.35,142.8,6/19/1944,UNIDENTIFIED TARGET,
USA,MARCUS ISLANDS,MARCUS ISLAND,24.2,153.75,5/25/1945,AIRFIELD,
USA,CHINA,SHANGHAI,31.23333333,121.5,7/17/1945,OIL STORAGE,
USA,CELEBES ISLANDS,GALELA,1.833333333,127.8,12/11/1944,SUPPLY AREA,
USA,NEW GUINEA,SORONG,-0.833333333,131.1333333,7/24/1943,UNIDENTIFIED TARGET,
USA,NEW GUINEA,MOM,-3.583333333,143.75,3/6/1945,UNIDENTIFIED TARGET,
USA,CELEBES ISLANDS,LOLOBATA,1.25,128.1166667,11/29/1944,AIRDROME,
USA,NEW GUINEA,MADANG,-5.25,145.8333333,1/4/1943,UNIDENTIFIED TARGET,
USA,BURMA,SENIKU,25.55,97.78333333,5/10/1943,TOWN,
USA,JAPAN,SAKISHIMA ISLAND,24.4,124.2,6/23/1945,UNIDENTIFIED TARGET,
USA,BURMA,RANGE,26.58333333,96,8/19/1943,UNIDENTIFIED TARGET,
USA,PHILIPPINE ISLANDS,NASUGBU,14.08333333,120.6666667,2/2/1945,AREA,
USA,SOLOMON ISLANDS,KAHILI,-6.8,155.7833333,11/8/1943,AIRDROME,
USA,MARSHALL ISLANDS,EMIDJ ISLAND,6,169.7333333,2/29/1944,RADIO STATION,
USA,TUNISIA,SFAX EL MAOU LG,34.72,10.69,3/30/1943,,780
USA,NEW GUINEA,HANSA BAYH,-4.166666667,144.9166667,5/13/1944,SUPPLY INSTALLATIONS,
USA,BISMARK ARCHIPELAGO,ALI ISL,-3.133333333,142.5,2/26/1943,UNIDENTIFIED TARGET,
USA,PALAU ISLANDS,KOROR ISLAND,7.333333333,134.5,2/6/1945,GUN EMP,
USA,BURMA,SAUNGKA,25.51666667,97.48333333,2/16/1944,PERSONNEL SUPPLIES,
USA,BURMA,PYINGAING TAUNG,23.15,94.81666667,7/28/1944,ROAD BRIDGE,
USA,BORNEO,TARAKAN ISLAND,3.416666667,117.5833333,6/5/1945,AREA,
USA,NEW GUINEA,BAGEISERWAR,-1.916666667,138.8333333,8/10/1944,UNIDENTIFIED TARGET,
USA,PHILIPPINE ISLANDS,ABANGAN,17,120.9166667,6/24/1945,UNIDENTIFIED TARGET,
USA,JAPAN,HI SAKI,31.26666667,131.1333333,4/25/1945,HI SAKI AIRFIELD,
USA,MALAY STATES,KACHONG,4.316666667,102.4,12/31/1944,WOODED AREA,
USA,CELEBES ISLANDS,NOLOT,-3.5,128.6666667,9/16/1944,TOWN,
USA,CELEBES ISLANDS,MAKASSAR,-5.133333,119.416884,6/5/1945,SHIPPING,
USA,CHINA,TAIYUAN,30.710932,118.400485,7/21/1945,RAILROAD,
USA,BURMA,PAZUNDAUNG BRIDGE,16.849926,96.209541,2/27/1943,BRIDGE,
USA,PHILIPPINE ISLANDS,LAIBAN,16.75,121.1333333,7/14/1945,BUILDINGS,
USA,BURMA,NALONG,24.7333333,97.4666667,5/6/1944,TROOP CONCENTRATIONS,
USA,BURMA,LETPADAN,17.78333333,95.75,9/4/1943,MARSHALLING YARD,
GREAT BRITAIN,BURMA,MOULMEIN DOCKS,16.48333333,97.63333333,2/11/1942,DOCKS,
USA,PHILIPPINE ISLANDS,CORREGIDOR,14.41666667,120.5833333,1/26/1945,GUN EMPLACEMENTS,
USA,PHILIPPINE ISLANDS,CABALLO,14.33333333,120.5833333,2/4/1945,UNIDENTIFIED TARGET,
USA,BORNEO,LUTONG,4.483333333,114,12/28/1944,OIL REFINERY,
USA,BURMA,RANGDON,16.8,96.15,8/14/1943,UNIDENTIFIELD TARGET,
USA,CHINA,HENGYANG,26.93333333,112.5833333,6/29/1944,GUN POSITION,
USA,BURMA,HOPIN,24.98333333,96.53333333,7/13/1944,UNIDENTIFIED TARGET,
USA,CHINA,CANTON,23.18333333,113.2333333,9/30/1944,AIRDROME,
USA,NEW GUINEA,BOGADJIM,-5.416666667,145.75,8/29/1943,BRIDGES,
USA,BURMA,PANG LONG,23.18333333,98.75,11/18/1944,UNIDENTIFIED TARGET,
USA,ITALY,LA SPEZIA,44.1,9.83,8/17/1943,,630
USA,PHILIPPINE ISLANDS,DAPPIG,16.45,121.7333333,5/20/1945,UNIDENTIFIED TARGET,
USA,BURMA,LASHIO,22.93333333,97.75,2/23/1945,AREA,
USA,CHINA,TANCHUK,23.43333333,110.5333333,10/6/1944,AIRDROME,
USA,BURMA,MYITKYINA,25.38333333,97.4,8/29/1943,RAILROAD STATION,
GREAT BRITAIN,GREECE,PORTA MARGHERA OIL STORAGE,45.43,12.33,3/3/1945,,
USA,SOLOMON ISLANDS,MAMAGATA,-6.783333333,155.4333333,4/4/1944,BRIDGE,
USA,BURMA,MANPONG,23.341402,97.961293,12/29/1944,WOODED AREA,
USA,NEW GUINEA,METAMANI BAY,-2,132.0833333,7/21/1944,UNIDENTIFIED TARGET,
USA,NEW GUINEA,NABIRE,-3.333333333,135.5,8/8/1944,UNIDENTIFIED TARGET,
USA,CELEBES ISLANDS,NAKASSAR STRAIT,3.95,119.5333333,3/7/1945,UNIDENTIFIED TARGET,
USA,JAPAN,YAMAKAWA,31.2,130.6333333,4/20/1945,HARBOR,
USA,CELEBES ISLANDS,KENDARI,-4.066666667,122.6666667,1/12/1945,AIRDROME,
USA,PHILIPPINE ISLANDS,NAIC,14.33333333,120.75,1/10/1945,ROLLING STOCK,
GREAT BRITAIN,LIBYA,BENGHAZI,32.11,20.05,11/13/1942,,
USA,FRENCH INDO CHINA,INDO CHINA COAS,20,105,5/12/1945,UNIDENTIFIED TARGET,
USA,PHILIPPINE ISLANDS,TERNATE,0.783333,127.366667,3/18/1945,TROOPS,
NEW ZEALAND,NEW IRELAND,KAVIENG SWEEP,-2.583333333,150.8333333,5/4/1945,VARIOUS TARGETS,
USA,CHINA,LINGLING,26.25,111.5333333,9/9/1944,UNIDENTIFIED TARGET,
USA,BISMARK ARCHIPELAGO,LORENGAU,-2.016666667,147.2666667,2/13/1944,LANDING BEACHES,
USA,PHILIPPINE ISLANDS,CEBU,10.321389,123.754722,10/21/1944,HARBOR,
USA,PHILIPPINE ISLANDS,SAYRE,8.4,124.85,5/9/1945,HIGHWAY,
USA,PHILIPPINE ISLANDS,SISON,9.666666667,125.5,1/25/1945,TROOPS,
USA,BURMA,TADA U,21.81666667,95.98333333,2/22/1945,VILLAGE,
USA,BISMARK ARCHIPELAGO,SILIMATI POINT,-5.583333333,148.5,1/14/1945,DUMP AREA,
USA,NEW GUINEA,SAWAR,-1.916666667,138.75,5/13/1944,SUPPLIES,
USA,PHILIPPINE ISLANDS,BACOLOD,10.66666667,122.9166667,10/30/1944,AIRDROME,
USA,CELEBES ISLANDS,BOELA,-3.166666667,130.4666667,1/23/1945,UNIDENTIFIED TARGET,
USA,PHILIPPINE ISLANDS,INFANTA,14.75,121.6666667,6/11/1945,TOWN,
USA,PHILIPPINE ISLANDS,SAN PABLO,14.08333333,121.3333333,4/10/1945,AREA,
USA,BURMA,MYITKYINA,25.38333333,97.4,7/27/1944,GUN POSITIONS,
USA,BURMA,MYITKYINA,15.38333333,97.4,8/29/1943,EUROPEAN QTRS,
USA,PHILIPPINE ISLANDS,CORREGIDOR,14.41666667,120.5833333,2/14/1945,AIRDROME,
GREAT BRITAIN,GREECE,SAN STEFANO,42.48,11.25,3/11/1944,,
USA,CHINA,HAINAN ISLAND,19,110,3/21/1945,AIRDROME,
USA,PHILIPPINE ISLANDS,BOLAC,14.86666667,121.1333333,5/4/1945,UNIDENTIFIED TARGET,
USA,BURMA,SWA,19.26666667,96.3,4/3/1945,RAILROAD PASS,
USA,CHINA,LINGEN,36.08333333,111.5166667,7/17/1945,RAILROAD YARDS,
USA,BURMA,MYOTHIT,20.2,95.45,9/4/1944,TROOPS,
USA,ITALY,MONTELLA,40.83,15.02,9/14/1943,,650
USA,BURMA,MYITKYINA,25.38333333,97.4,3/2/1943,ENEMY POSITION,
USA,JAPAN,MIYAKONOJO,31.73333333,131.0666667,8/6/1945,RAILROAD,
USA,PALAU ISLANDS,BABELTHUAP ISLAND,7.5,134.55,7/22/1944,UNIDENTIFIED TARGET,
USA,CELEBES ISLANDS,TARAKIAN ISLAND,-0.552631,127.2666667,12/6/1944,AIRDROME,
USA,BURMA,MAINGKWAN,26.33333333,96.58333333,5/7/1943,TOWN,
USA,PHILIPPINE ISLANDS,SURIGAO,9.75,125.5,4/14/1945,MOTHER LODE MINE,
USA,ITALY,CANICATTI,37.35,13.83,7/8/1943,,630
GREAT BRITAIN,LIBYA,DERNA,32.77,22.63,12/13/1941,,
USA,PHILIPPINE ISLANDS,CABALLO,14.33333333,120.5833333,2/15/1945,GUN POSITIONS,
USA,MARSHALL ISLANDS,MILLE ATOLL,6.166666667,171.9166667,2/25/1944,AIRDROME,
USA,BURMA,PANHA,24.58333333,97.18333333,2/2/1945,UNIDENTIFIED TARGET,
GREAT BRITAIN,BURMA,MAGWE AIRFIELD,20.16666667,94.91666667,5/14/1942,AIRFIELD,
USA,CELEBES ISLANDS,MENADO,1.493056,124.841261,9/18/1944,TOWN,
USA,PHILIPPINE ISLANDS,BATAAN,13.66666667,121.4166667,2/14/1945,COASTAL AREA,
USA,PHILIPPINE ISLANDS,TUGUEGARAO,17.66666667,121.75,2/22/1945,AIRDROME,
USA,PHILIPPINE ISLANDS,LAL LO,18.16666667,121.6666667,6/5/1945,TOWN,
USA,JAVA,LAUTEM,-8.4,126.9,11/9/1944,AIRDROME,
USA,VOLCANO AND BONIN ISLANDS,IWO JIMA,24.78333333,141.3166667,2/3/1945,DISPERSAL AREA,
USA,BISMARK ARCHIPELAGO,VUNAPOPE,-4.333333333,152.3333333,3/24/1944,UNIDENTIFIED TARGET,
USA,CELEBES ISLANDS,MENADO,1.493056,124.841261,9/10/1944,UNIDENTIFIED TARGET,
USA,BURMA,MAYMYO,22.03333333,96.46666667,5/2/1943,ENGINE SHEDS,
USA,PALAU ISLANDS,YAP ISLAND,9.533333333,138.1333333,8/10/1944,DISPERSAL AREA,
USA,BURMA,MYITTHA,21.41666667,96.13333333,9/25/1944,RAILROAD BRIDGE,
USA,NEW GUINEA,SAURI,-3.583333333,143.5833333,7/21/1944,VILLAGE,
USA,FRENCH INDO CHINA,ITU ABA ISLE,10.38333333,114.35,7/26/1945,INSTALLATIONS,
USA,BURMA,BHAMO,24.25,97.23333333,12/8/1944,UNIDENTIFIED TARGET,
USA,CHINA,TAOCHUAN,25.15,110.9333333,9/23/1944,UNIDENTIFIED TARGET,
USA,ALEUTIAN ISLANDS,KISKA ISLAND,52,177.5,6/28/1943,UNIDENTIFIED TARGET,
USA,CELEBES ISLANDS,KAOE,1.183333333,127.9166667,12/14/1944,AIRDROME,
USA,MARIANAS ISLANDS,PAGAN ISLAND,18.13333333,145.7833333,9/22/1944,UNIDENTIFIED TARGET,
USA,PHILIPPINE ISLANDS,SAN FERNANDO,16.633333,120.3,2/20/1945,AREA,
USA,CHINA,YOCHOW,29.38333333,113.15,7/25/1944,WAREHOUSE RAILROAD Y,
GREAT BRITAIN,LIBYA,BENGHAZI SHIPPING,32.15,20.07,9/22/1942,,
USA,PHILIPPINE ISLANDS,TANADAN,14.08333333,121.1666667,3/17/1945,TOWN,
USA,PHILIPPINE ISLANDS,LYANG,14.88333333,121.1333333,5/13/1945,UNIDENTIFIED TARGET,
USA,FORMOSA AND RYUKYU ISLANDS,FORMOSA,24,121,5/13/1945,ALCOHOL PLANT,
USA,NEW GUINEA,BABO,-2.583333333,133.4166667,10/20/1944,AIRDROME,
USA,PHILIPPINE ISLANDS,BALETE PASS,16.08333333,120.9166667,5/9/1945,SUPPLY DUMP,
USA,BISMARK ARCHIPELAGO,NEW IRELAND,-2.733333333,150.85,3/27/1944,UNIDENTIFIED TARGET,
USA,PHILIPPINE ISLANDS,CAMALIG,13.16666667,123.6666667,4/22/1945,UNIDENTIFIED TARGET,
USA,BORNEO,SANDAKAN,5.833333333,118.0833333,3/10/1945,AIRDROME,
USA,FRENCH INDO CHINA,GIA LAM,21.03333333,105.8666667,11/3/1944,AIRDROME,
USA,ITALY,LITTORIA,41.47,12.9,2/28/1944,,780
USA,MARSHALL ISLANDS,EMIDJ ISLAND,6,169.7333333,2/16/1944,UNIDENTIFIED TARGET,
USA,NEW GUINEA,MYOLA LAKES #1 AND #2,-9.1,147.75,10/2/1942,ENEMY CONCENTRATION,
USA,NEW GUINEA,NABIRE,-3.333333333,135.5,9/3/1944,UNIDENTIFIED TARGET,
USA,VOLCANO AND BONIN ISLANDS,CHICHI JIMA,27.06666667,142.2166667,6/16/1945,RADIO STATION 1,
USA,SOLOMON ISLANDS,KATITJ,-5.6,154.6833333,5/12/1944,CHANNEL,
USA,PHILIPPINE ISLANDS,CALUMPIT,14.91666667,120.75,1/9/1945,BRIDGE,
USA,BORNEO,SIBU,2.333333333,111.8333333,5/30/1945,AIDROME,
USA,CHINA,PAOCHING,28.71666667,109.7833333,9/14/1944,UNIDENTIFIED TARGET,
USA,SOLOMON ISLANDS,KARA,-6.7,155.7166667,3/22/1944,AIRFIELD,
USA,BORNEO,MIRI,4.416666667,114,6/16/1945,AIRDROME,
USA,FORMOSA AND RYUKYU ISLANDS,MATO,23.18333333,120.2333333,6/22/1945,UNIDENTIFIED TARGET,
GREAT BRITAIN,GREECE,FERRARA M/Y,44.85,11.63,9/5/1944,,
USA,ITALY,MESSINA,38.19,15.57,1/31/1943,,710
USA,FORMOSA AND RYUKYU ISLANDS,KIIRUN,25.13333333,121.7333333,3/25/1945,OUTER HARBOR,
AUSTRALIA,NEW GUINEA,BUKA A/D,-5.422222,154.6725,10/6/1942,AIRFIELD,
USA,JAVA,CAPE CHATER,-8.316666667,127,9/13/1944,UNIDENTIFIED TARGET,
USA,PHILIPPINE ISLANDS,PARET,17.9,121.6833333,3/23/1945,BRIDGE,
USA,PHILIPPINE ISLANDS,LEGASPI,13.16666667,123.75,3/31/1945,GUN POSITIONS,
USA,PHILIPPINE ISLANDS,CORREGIDOR,14.41666667,120.5833333,1/25/1945,GUN EMPLACEMENTO,
USA,ITALY,MESSINA,38.19,15.57,5/9/1943,,710
USA,CELEBES ISLANDS,AMBON,-3.700432,128.17547,3/12/1943,HARBOR,
USA,BORNEO,TARAKAN ISLAND,3.416666667,117.5833333,6/1/1945,GROUND SUPPORT,
USA,FORMOSA AND RYUKYU ISLANDS,MAKO HARBOR,23.53333333,119.5666667,2/18/1945,INSTALLATIONS,
USA,NEW GUINEA,RAMU RIYER,-4.416666667,144.6666667,6/5/1944,WOODED AREAS EAST SI,
USA,ITALY,VIBO VALENTIA,38.67,16.1,7/16/1943,,780
USA,CHINA,SIANG RIVER,29.433333,113.133333,7/15/1944,SHIPPING,
USA,BURMA,NABA,24.26666667,96.25,9/10/1943,RAILROAD JUNCTION,
USA,BISMARK ARCHIPELAGO,LUKUANI,-4.233333333,152.2166667,2/15/1944,AIRDROME,
USA,MARSHALL ISLANDS,JALUIT ATOLL,6.05,169.5666667,9/21/1944,UNIDENTIFIED TARGET,
USA,PHILIPPINE ISLANDS,BATANGAS,13.75,121.0833333,3/13/1945,TOWN,
USA,BURMA,DAGA,16.96666667,94.98333333,5/12/1944,R R BRIDGE,
USA,BURMA,WANLING,21.01666667,98.06666667,11/22/1944,STORES AMMUNITION AR,
AUSTRALIA,SOLOMON ISLANDS,KAHILI A/D SOUTH BOUGAINVILLE ISLAND,-6.787255,155.778638,11/15/1942,AIRFIELD,
USA,BISMARK ARCHIPELAGO,RABAUL,-4.2,152.2,5/27/1944,UNIDENTIFIED TARGET,
USA,NEW GUINEA,WEWAK,-3.583333333,143.6666667,6/22/1944,SUPPLIES PERSONNEL,
USA,CHINA,TINGKA,31.5662885,100.133291,11/16/1944,BRIDGE,
USA,JAPAN,KANOYA,31.36666667,130.8333333,4/29/1945,KANOYA AIRFIELD,
USA,PHILIPPINE ISLANDS,SALOMAGUE,17.75,120.4166667,3/15/1945,SUPPLY AREA,
USA,NEW GUINEA,MUSHU ISLAND,-3.416666667,143.5833333,6/16/1945,JAP POISTIONS,
USA,CHINA,KWEILIN,25.23333333,110.2,11/2/1944,FACTORY BUILDING,
USA,BURMA,MAWLU,24.46666667,96.18333333,10/25/1944,TRUCKS,
USA,BURMA,MYITSON,21.433333,96.466667,12/11/1944,UNIDENTIFIED TARGET,
USA,BURMA,MOHNYIN,24.78333333,96.36666667,8/6/1944,R R BRIDGE,
USA,FRENCH INDO CHINA,LANG SON,21.9,106.8333333,4/7/1944,UNIDENTIFIED TARGET,
USA,BURMA,MYITKYINA,25.38333333,97.4,6/25/1944,ENEMY POSITION,
GREAT BRITAIN,GERMANY,SEA SWEEP,53.883333,7.7,12/16/1939,,
USA,JAPAN,HAMAMATSU,34.7,137.7333333,1/6/1945,URBAN AREA,
USA,NEW GUINEA,ANUME RIVER,-3.416666667,143.1666667,6/3/1944,UNIDENTIFIED TARGET,
NEW ZEALAND,NEW IRELAND,BORPOP,-3.85,152.8333333,1/30/1945,,
AUSTRALIA,TIMOR,ATTEMBOEA(TIMOR),-9.106111,124.8925,7/4/1942,BARRACKS,
USA,BURMA,KUNLONG,23.33333333,98.66666667,2/29/1944,AMMUNITION DUMP,
USA,PHILIPPINE ISLANDS,CERVANTES,17,120.75,6/7/1945,UNIDENTIFIED TARGET,
USA,NEW GUINEA,BOGIA,-4.333333333,145,4/30/1944,HARBOR,
USA,PHILIPPINE ISLANDS,SANTA FE,11.166667,123.783333,5/22/1945,TROOPS,
NEW ZEALAND,BISMARK ARCHIPELAGO,TALILI BAY,-4.183333333,152.1166667,4/3/1944,,
USA,PHILIPPINE ISLANDS,UMINGAN,15.91666667,120.8333333,2/1/1945,UNIDENTIFIED TARGET,
USA,BISMARK ARCHIPELAGO,MOMOTE,-2.083333333,147.4166667,2/26/1944,ARTILLERY,
USA,PHILIPPINE ISLANDS,LAHUG,10.41666667,124.0333333,11/24/1944,AIRDROME,
USA,CHINA,HANKON,30.6,115.3333333,11/24/1944,BATERFRONT,
USA,PHILIPPINE ISLANDS,IPO,14.83333333,121.1666667,5/1/1945,DAM,
USA,JAPAN MINING,HAGI X,34.41666667,131.4,8/5/1945,HARBOR AREA,
USA,BURMA,SINGO,24.4,94.83333333,1/4/1945,WAREHOUSE AREA,
USA,ITALY,COSENZA,39.27,16.25,1/21/1944,,810
USA,JAPAN,OITA,33.23333333,131.6333333,6/21/1945,OITA AIRFIELD,
USA,SOLOMON ISLANDS,PORTON PLANTATION,-5.516666667,154.7666667,5/31/1944,BARGE HIDEOUT,
USA,ITALY,44 00 N 009 20 E,44,9.33,6/15/1944,,630
USA,CELEBES ISLANDS,LIANG,-3.516666667,128.3,1/25/1945,AIRDROME,
USA,JAVA,SOERABAJA,-7.266666667,112.7333333,11/11/1943,NAVAL INSTALLATIONS,
USA,JAPAN,HARU,30.23333333,130.5666667,8/9/1945,TOWN,
USA,FORMOSA AND RYUKYU ISLANDS,HEITO,22.66666667,120.4833333,1/11/1945,AIRDROME,
USA,PHILIPPINE ISLANDS,CARABAO ISLAND,12.08333333,121.9166667,4/13/1945,UNIDENTIFIED TARGET,
USA,CHINA,SHANGHAI,31.23333333,121.5,5/27/1945,UNIDENTIFIED TARGET,
USA,NEW GUINEA,MCDONALDS JUNCT,-9.083333333,147.4166667,8/7/1943,UNIDENTIFIED TARGET,
USA,ITALY,PRIVERNO,42,13,1/23/1944,,630
USA,BORNEO,KENINGAU,5.3,116.1666667,5/5/1945,AIRDROME,
USA,SOLOMON ISLANDS,VILA,-8.133333333,157.15,9/14/1943,SUPPLY AREA,
GREAT BRITAIN,LEBANON,BEIRUT,33.89,35.51,6/21/1941,,
USA,NEW GUINEA,NOEMFOOR ISLAND,-1,134.8333333,7/2/1944,UNIDENTIFIED TARGET,
USA,BURMA,KEHSI MANSAM,21.93333333,97.83333333,4/16/1945,TROOPS,
USA,BURMA,AUCHE,25.71666667,96.85,4/14/1944,UNIDENTIFIED TARGET,
USA,PHILIPPINE ISLANDS,DIPI,11.16666667,124.5,12/23/1944,UNIDENTIFIED TARGET,
USA,BURMA,NABU,24.800153,97.058249,3/3/1945,TROOPS,
GREAT BRITAIN,GREECE,SAN SAFANO PORT,42.48,11.25,4/28/1944,,
USA,PHILIPPINE ISLANDS,MATINA,7.083333333,125.5833333,2/16/1945,AIRDROME,
USA,SOLOMON ISLANDS,NAURU ISLAND,-8.283333333,157.2166667,6/18/1944,AIRDROME,
USA,PHILIPPINE ISLANDS,BACOLOD,10.66666667,122.9166667,11/22/1944,SUPPLY AREA,
USA,JAVA,FLORES ISLAND,-8.5,121,7/18/1944,UNIDENTIFIED TARGET,
USA,BISMARK ARCHIPELAGO,RABAUL,-4.2,152.2,4/23/1944,UNIDENTIFIED TARGET,
USA,CHINA,SINSHIH,30.6,120.25,8/9/1944,BRIDGE,
USA,PHILIPPINE ISLANDS,KALIVA,14.58333333,121.5833333,5/18/1945,TACTICAL TARGET,
USA,MARIANAS ISLANDS,PAGAN ISLAND,18.13333333,145.7833333,10/16/1944,AIRFIELD,
USA,BURMA,MONYWA,22.11666667,95.13333333,5/17/1943,RAILROAD YARDS,
USA,CELEBES ISLANDS,HALMAHERA,1,128,10/2/1944,BARGE,
USA,CELEBES ISLANDS,BOELA,-3.166666667,130.4666667,10/24/1944,OIL TANKS,
GREAT BRITAIN,GREECE,DUKAJ,41.15,20.17,3/30/1941,,
USA,PHILIPPINE ISLANDS,MARIKINA RIVER,14.66666667,121.0833333,5/25/1945,UNIDENTIFIED TARGET,
USA,BISMARK ARCHIPELAGO,GUNANUR PLANTAT,-4.366666667,152.2833333,6/11/1944,AA POSITIONS,
USA,CELEBES ISLANDS,MAKASSAR,-5.133333,119.416884,4/29/1945,UNIDENTIFIED TARGET,
USA,NEW GUINEA,BUNA AREA - GONA WRECK,-8.617455,148.30538,12/27/1942,ENEMY SHIPPING,
USA,BURMA,TAIHPA GA,26.5,96.5,2/1/1944,UNIDENTIFIED TARGET,
USA,CHINA,CANTON,23.18333333,113.2333333,7/20/1945,BARGE,
USA,CELEBES ISLANDS,HAROEKOE,-3.6,128.425082,11/20/1944,AIRDROME,
USA,FORMOSA AND RYUKYU ISLANDS,AMAMI,28.3,129.4,7/25/1945,SEAPLANE BASE,
USA,VOLCANO AND BONIN ISLANDS,HAHA JIMA,26.65,142.15,4/15/1945,UNIDENTIFIED TARGET,
USA,BURMA,MOHNYIN,24.78333333,96.36666667,7/6/1944,JAP HDQS,
USA,BORNEO,BRUNEI BAY,4.916666667,114.9166667,11/30/1944,SHIPPING,
USA,PHILIPPINE ISLANDS,CABANATUAN,15.5,121,2/1/1945,UNIDEMTIFIED TARGET,
USA,JAPAN,TANABE,34.83333333,135.7666667,7/28/1945,TOWN,
USA,PHILIPPINE ISLANDS,VERDE ISLAND,13.58333333,121.0833333,3/7/1945,UNIDENTIFIED TARGET,
USA,CELEBES ISLANDS,KAOE,1.183333333,127.9166667,8/13/1944,UNIDENTIFIED TARGET,
USA,ITALY,ORLANDO,38.15,14.73,8/2/1943,,830
USA,SOLOMON ISLANDS,BALLALE,-7,155.9,5/7/1943,UNIDENTIFIED TARGET,
USA,LIBYA,TOBRUK,32.04,23.95,7/23/1942,,710
USA,BISMARK ARCHIPELAGO,TALILI,-4.183333333,152.1166667,4/27/1944,SUPPLY AREA,
USA,MARSHALL ISLANDS,EMIDJ ISLAND,6,169.7333333,11/23/1943,UNIDENTIFIED TARGET,
USA,PHILIPPINE ISLANDS,GUIMBALAON,10.75,123.0833333,4/1/1945,UNIDENTIFIED TARGET,
GREAT BRITAIN,GREECE,PISA,43.73,10.43,1/17/1944,,
USA,BURMA,PAHOK,23.8,96.9,3/29/1944,UNIDENTIFIED TARGET,
USA,BURMA,NAMKWIN,25.08333333,96.58333333,2/22/1944,RR BRDG,
USA,NEW GUINEA,DOBO MERCHANT,-5.75,134.2833333,5/26/1944,SHIPS,
USA,NEW GUINEA,SIAWES,-1.083333333,136,8/17/1944,AREA,
GREAT BRITAIN,GERMANY,"""MAGDEBURG", HAMBURG," BERLIN""",53.563056,9.967222,10/24/1939,PROPAGANDA,
NEW ZEALAND,NEW IRELAND,NEW IRELAND SWEEP,-2.733333333,150.85,1/12/1945,VARIOUS TARGETS,
USA,FORMOSA AND RYUKYU ISLANDS,SHINCHIKU,24.8,120.9666667,6/20/1945,AIRDROME,
USA,MARSHALL ISLANDS,MILLI ISLAND,9.083333333,171.7333333,2/28/1944,AIRDROME,
USA,NEW GUINEA,ALEXISHAFEN,-5.083333333,145.7833333,1/4/1944,UNIDENTIFIED TARGET,
USA,FORMOSA AND RYUKYU ISLANDS,ROKKO,24.08333333,120.4166667,7/9/1945,AIRDROME,
USA,GILBERT ISLANDS,NAURU,-0.516666667,166.9333333,6/28/1943,ENEMY INSTALLATIONS,
USA,CHINA,LIUCHOW,20.91666667,110.05,8/25/1944,UNIDENTIFIED TARGET,
USA,PHILIPPINE ISLANDS,BACOLOD,10.66666667,122.9166667,5/14/1945,AIRDROME,
USA,CHINA,KIYANG,27.08333333,118.0333333,9/5/1944,UNIDENTIFIED TARGET,
USA,FORMOSA AND RYUKYU ISLANDS,KIIRUN,25.13333333,121.7333333,6/3/1945,OUTER HARBOR,
USA,NEW GUINEA,SAURI,-3.583333333,143.5833333,2/27/1945,VILLAGE,
USA,NEW GUINEA,SAIDOR,-5.666666667,146.5,8/2/1943,UNIDENTIFIED TARGET,
USA,CELEBES ISLANDS,LOLOBATA,1.25,128.1166667,9/10/1944,AIRDROME,
USA,NEW GUINEA,DAGUA,-3.416666667,143.3333333,6/27/1944,PERSONNEL,
USA,BURMA,PAUK KAN,21.1,95.9333333,2/24/1943,,
USA,BURMA,ALON,22.2,95.08333333,5/5/1943,INSTALLATIONS,
USA,NEW GUINEA,ALEXISHAFEN,-5.083333333,145.7833333,1/12/1944,SUPPLY INSTALLATIONS,
USA,"""PAPUA NEW GUINEA"," MANUS ISLAND""","""MANUS ISLAND AREA : CONVOY: 4 DD", 1 CRUISER," 2 TRANSPORTS""",-2.271439,147.306406,12/18/1942,ENEMY MERCHANT SHIPPING,
USA,SOLOMON ISLANDS,RIGU,-6.216666667,155.6666667,3/2/1944,BRIDGE,
USA,EGYPT,ALAM-EL HAIFA RIDGE,30.45,29.02,9/1/1942,,810
USA,BURMA,MAN HO PANG,22.41666667,98.75,2/2/1945,UNIDENTIFIED TARGET,
USA,CELEBES ISLANDS,TOBELO,1.733333333,128.0166667,9/3/1944,UNIDENTIFIED TARGET,
GREAT BRITAIN,LIBYA,TRIPOLI RD JNCTN Q35/36,32.37,15.13,1/10/1943,,
USA,BURMA,MADAUNGHLA,22.83333333,95.58333333,11/29/1944,RR BRIDGE,
USA,PHILIPPINE ISLANDS,SOLVEC,17.41666667,120.4166667,3/26/1945,UNIDENTIFIED TARGET,
USA,BISMARK ARCHIPELAGO,BORAM,-3.183333333,151.6166667,5/20/1943,INSTALLATIONS,
USA,CHINA,PUCHI,29.7,113.9,8/13/1944,UNIDENTIFIED TARGET,
USA,NEW GUINEA,KIARIYU,-3.666666667,143.3333333,6/13/1945,AREA,
USA,PHILIPPINE ISLANDS,SUMULONG,14,122.3333333,4/4/1945,TOWN,
USA,BURMA,MOHNYIN,24.78333333,96.36666667,8/23/1944,MARSHALLING YARD,
USA,PHILIPPINE ISLANDS,CERVANTES,17,120.75,7/14/1945,MINING AREA,
USA,BORNEO,TABANIO,3.416666667,114.6666667,2/3/1945,ROADWAY,
USA,BURMA,MANKYAWNG,22.76666667,97.65,2/18/1945,JAP HQS BUILDING,
USA,NEW GUINEA,KAIRIRU,-3.333333333,143.5833333,9/23/1944,VILLAGE,
USA,NEW GUINEA,SALAMAUA,-7.016666667,147.1166667,7/31/1943,UNIDENTIFIED TARGET,
USA,BURMA,NANSIAUNG,24.5,96.16666667,10/26/1944,UNIDENTIFIED TARGET,
USA,BORNEO,JESSELTON,5.983333333,116.0666667,3/3/1945,AIRDROME,
USA,PHILIPPINE ISLANDS,LICANAN,7.266666667,125.65,9/1/1944,AIRDROME,
USA,BISMARK ARCHIPELAGO,VUNAPOPE,-4.333333333,152.3333333,3/11/1944,SUPPLY AREA,
USA,CELEBES ISLANDS,NAMLEA,-3.266666667,127.1,10/11/1944,AIRDROME,
USA,JAPAN,MAKE SHIMA,30.73333333,130.8666667,8/11/1945,BUILDINGS,
USA,BURMA,MANPONG,23.341402,97.961293,1/3/1945,STRONG POINTS,
USA,SOLOMON ISLANDS,BOUGAINVILLE,-6.2,155.25,5/14/1943,BALLALE AIRFIELDS,
USA,PALAU ISLANDS,KOROR ISLAND,7.333333333,134.5,5/2/1945,AA POSITION,
USA,PHILIPPINE ISLANDS,LYANG,14.88333333,121.1333333,4/25/1945,UNIDENTIFIED TARGET,
USA,BURMA,MUSE,24,97.9,1/12/1945,AREA,
GREAT BRITAIN,GREECE,MEGARA,38,23.35,5/18/1941,,
USA,NEW GUINEA,CAPE CROISILLES,-4.833333333,145.8333333,4/14/1944,UNIDENTIFIED TARGET,
USA,BURMA,TAUNGUP,18.85,94.33333333,11/5/1944,MISCELLANEOUS TARGET,
USA,CELEBES ISLANDS,NAMLEA,-3.266666667,127.1,1/15/1945,AIRDROME,
USA,SOLOMON ISLANDS,BUKA,-5.416666667,154.7,2/16/1944,AIRDROME,
USA,FRENCH INDO CHINA,OUANG YEN,20.95,106.8,11/15/1944,CARBIDE MINES,
USA,PHILIPPINE ISLANDS,IPO,14.83333333,121.1666667,5/17/1945,DAM,
USA,BURMA,PYINMANA,19.73333333,96.15,6/28/1943,MARSHALLING YARDS,
USA,BISMARK ARCHIPELAGO,VUNAKANAU,-4.316666667,152.1833333,6/19/1945,AIRFIELD,
USA,PHILIPPINE ISLANDS,REINA MERCEDES,16.98333333,121.8166667,4/12/1945,UNIDENTIFIED TARGET,
USA,NEW GUINEA,BUNA,-8.666666667,148.4166667,12/9/1942,AREA,
USA,BURMA,MAWLU,24.46666667,96.18333333,5/6/1944,TROOPS,
USA,BURMA,MYITKYINA,25.38333333,97.4,4/27/1944,UNIDENTIFIED TARGET,
USA,BORNEO,BALIK PAPAN,-1.25,116.8333333,10/20/1944,LUBE OIL PLANT,
USA,BISMARK ARCHIPELAGO,RAPOPO,-4.333333333,152.35,6/23/1944,GUN POSITIONS,
USA,VOLCANO AND BONIN ISLANDS,IWO JIMA,24.78333333,141.3166667,12/24/1944,AIRFIELDS 1 AND 2,
USA,BISMARK ARCHIPELAGO,KERAVIA BAY,-4.283333333,152.2,4/3/1944,FUEL DUMP,
USA,PHILIPPINE ISLANDS,APARRI,18.33333333,121.6666667,3/13/1945,AIRDROME,
USA,PHILIPPINE ISLANDS,PORT HOLLAND,6.583333333,121.8333333,3/10/1945,UNIDENTIFIED TARGET,
USA,NEW GUINEA,SUAIN,-3.333333333,143,6/29/1944,BIVOUAC AREA,
USA,CHINA,BAKLI BAY,19.13333333,108.7166667,4/2/1945,AREA,
USA,ITALY,LEONFORTE,37.63,14.35,7/25/1943,,10
NEW ZEALAND,NEW IRELAND,KAVIENG SWEEP,-2.583333333,150.8333333,7/21/1945,VARIOUS TARGETS,
USA,PHILIPPINE ISLANDS,FUSINA,18.25,121.7166667,5/21/1945,SUPPLY DISPERSAL ARE,
USA,NEW GUINEA,FINSCHAVEN AREA BUILDINGS,-6.620789,147.853767,12/28/1942,,
USA,BORNEO,ATAP,3.833333333,116.9833333,5/29/1945,TOWN,
USA,BURMA,LETPADAN,17.78333333,95.75,2/4/1945,RAILROAD BRIDGE,
GREAT BRITAIN,GERMANY,HELIGOLAND,54.2,7.883333,12/3/1939,WARSHIPS IN HARBOR,
USA,CHINA,KIEHSIU,36.96666667,111.9,8/1/1945,RAILROAD BRIDGE,
USA,BURMA,NAMTI,27.33333333,97.66666667,4/5/1944,UNIDENTIFIED TARGET,
USA,NEW GUINEA,BUT,-3.416666667,143.25,7/2/1944,AIRDROME,
GREAT BRITAIN,BURMA,KALEWA,23.2,94.3,5/13/1944,,
USA,VOLCANO AND BONIN ISLANDS,BONIN ISLAND,27,142.1666667,7/23/1945,AREA,
USA,BISMARK ARCHIPELAGO,NORDUP,-4.2,152.2166667,6/24/1944,SUPPLY AREA,
USA,PHILIPPINE ISLANDS,LUZON,15,121,2/4/1945,SLIPWAYS,
USA,NEW GUINEA,FINSCHHAFEN,-6.5,147.8333333,4/10/1943,AREA,
USA,CAROLINE ISLANDS,ETEN ISLAND,7.35,151.8833333,4/13/1944,AIRDROME,
NEW ZEALAND,BISMARK ARCHIPELAGO,TOBERA,-4.4,152.3166667,5/10/1944,AIRFIELD,
USA,PHILIPPINE ISLANDS,MARIKINA RIVER,14.66666667,121.0833333,6/7/1945,UNIDENTIFIED TARGET,
USA,PHILIPPINE ISLANDS,CORREGIDOR,14.41666667,120.5833333,2/1/1945,ANTI AIRCRAFT PITS,
USA,BURMA,NANKIN,24.21666667,96.13333333,10/25/1944,TOWN,
USA,NEW GUINEA,WEWAK,-3.583333333,143.6666667,4/19/1945,TOWN AREA,
USA,SOLOMON ISLANDS,KARA,-6.7,155.7166667,11/9/1943,AIRFIELD,
USA,PHILIPPINE ISLANDS,CABUGAO,9.303333,126.166944,3/14/1945,UNIDENTIFIED TARGET,
USA,NEW GUINEA,KAIRIRU,-3.333333333,143.5833333,7/21/1944,UNIDENTIFIED TARGET,
USA,BORNEO,BALIK PAPAN,-1.25,116.8333333,6/24/1945,UNIDENTIFIED TARGET,
USA,PHILIPPINE ISLANDS,BUGUIAS,16.73333333,120.8333333,5/31/1945,TROOPS,
USA,CHINA,SHANHSIEN,34.8,116.1833333,2/10/1945,SUPPLIES,
USA,PHILIPPINE ISLANDS,TARLAC,15.5,120.5833333,1/23/1945,BRIDGE,
USA,BORNEO,SANDAKAN,5.833333333,118.0833333,3/2/1945,SHIPBUILDING YARDS,
USA,PHILIPPINE ISLANDS,MT IMUGAN,16.16666667,120.9166667,4/18/1945,UNIDENTIFIED TARGET,
USA,KURILE ISLANDS,PARAMUSHIRO,50.56666667,156.0333333,6/11/1945,SHIPPING,
USA,CHINA,HENGYANG,26.93333333,112.5833333,6/16/1945,TRANSPORT,
USA,BORNEO,MAUPA,5.033333333,115.0333333,5/21/1945,TACTICAL TARGET,
USA,BURMA,CHISHIDU,25.63333333,96.53333333,2/16/1944,TROOP CONCENTRATION,
USA,JAVA,SOERABAJA,-7.266666667,112.7333333,6/16/1945,NAVAL INSTALLATIONS,
USA,CELEBES ISLANDS,HAROEKOE,-3.6,128.425082,8/17/1944,AIRDROME,
USA,CELEBES ISLANDS,LAHA,-3.7,128.1333333,7/10/1944,AIRDROME,
USA,PHILIPPINE ISLANDS,VERDE ISLAND,13.58333333,121.0833333,2/28/1945,UNIDENTIFIED TARGET,
USA,BURMA,NAPALU,23.4,94.41666667,4/4/1945,UNIDENTIFIED TARGET,
GREAT BRITAIN,GREECE,REGGIO DI CALABRIA,38.1,15.65,5/5/1943,,
GREAT BRITAIN,LIBYA,LEPTIS MAGNA AIRFIELD (HOMS),32.64,14.29,12/7/1942,,
NEW ZEALAND,BISMARK ARCHIPELAGO,KERAVAT,-4.316666667,152.05,8/12/1945,OIL DUMP,
USA,PALAU ISLANDS,PEGUN ISLAND,0.816666667,137.2833333,11/14/1944,UNIDENTIFIED TARGET,
USA,SOLOMON ISLANDS,NAURU ISLAND,-8.283333333,157.2166667,8/22/1944,ENEMY INSTALLATIONS,
USA,CELEBES ISLANDS,MACASSAR,-5.083333333,119.5,7/18/1943,UNIDENTIFIED TARGET,
USA,BURMA,KAMAING,25.53333333,96.71666667,5/30/1944,ROAD,
USA,CHINA,POYANG LAKE,22.01666667,110.6166667,12/10/1943,SHIPPING,
USA,PALAU ISLANDS,YAP ISLAND,9.533333333,138.1333333,7/9/1944,SUPPLY AREA,
USA,PALAU ISLANDS,YAP ISLAND,9.533333333,138.1333333,8/8/1944,GAGIL TOMIL RUNWAY,
USA,FRENCH INDO CHINA,CAPE ST JACQUES,10.31666667,107.0833333,1/6/1945,UNIDENTIFIED TARGET,
USA,NEW GUINEA,BOGIA,-4.333333333,145,4/22/1944,HARBOR MILITARY INST,
USA,PHILIPPINE ISLANDS,RIZAL,10.923333,125.021389,1/29/1945,ROAD,
USA,FORMOSA AND RYUKYU ISLANDS,TAIJUBO,21.95,120.7333333,6/13/1945,TOWN,
USA,CHINA,SINTSIANG,29.11666667,113.25,8/30/1944,UNIDENTIFIED TARGET,
USA,BISMARK ARCHIPELAGO,TOBERA,-4.4,152.3166667,1/28/1944,AIRDROME DISPERSAL,
USA,LIBYA,BENGHAZI,32.11,20.05,10/9/1942,,710
USA,BURMA,LASHIO,22.93333333,97.75,11/18/1944,STORES,
USA,NEW GUINEA,KARAWOP,-3.416666667,143.4166667,5/19/1944,JAP CAMP AREA,
USA,PHILIPPINE ISLANDS,BATANGAS,13.75,121.0833333,2/19/1945,AIRDROME,
USA,BURMA,GOKTEIK VIADUCT,22.343056,96.859722,2/20/1943,RR BRIDGE,
USA,BORNEO,BALIK PAPAN,-1.25,116.8333333,9/30/1944,UNIDENTIFIED TARGET,
USA,CELEBES ISLANDS,HAROEKOE,-3.6,128.425082,10/25/1944,AIRDROME,
USA,NEW GUINEA,MADANG,-5.25,145.8333333,2/25/1944,UNIDENTIFIED TARGET,
USA,PHILIPPINE ISLANDS,SAN NICHOLAS,13.91666667,120.9166667,1/26/1945,UNIDENTIFIED TARGET,
USA,JAPAN,YOKKAICHI,34.93333333,136.6333333,6/26/1945,UTSUBE OIL REFINERY,
USA,BISMARK ARCHIPELAGO,NEW HANOVER,-2.5,150.25,12/27/1943,UNIDENTIFIED TARGET,
USA,JAPAN,NACHIJO JIMA,33.1,139.8,8/9/1945,ISLAND,
USA,PHILIPPINE ISLANDS,TUDING,16.41666667,120.6666667,1/28/1945,ROAD,
USA,CELEBES ISLANDS,PELAUW,-3.516666667,128.45,12/7/1943,VILLAGE,
USA,FORMOSA AND RYUKYU ISLANDS,TAKAO,22.63333333,120.2833333,4/28/1945,AIRDROME,
USA,SOLOMON ISLANDS,KAHILI,-6.8,155.7833333,9/16/1943,AIRDROME,
USA,BURMA,MOGAUNG,25.3,96.93333333,4/16/1943,UNIDENTIFIED TARGET,
USA,BURMA,INDAW,24.21666667,96.15,4/24/1944,RR BRIDGE,
USA,JAPAN,KANOYA,31.36666667,130.8333333,8/9/1945,AIR FIELD,
USA,CHINA,LIUCHOW,24.3,109.2666667,8/8/1945,TROOP CONCENTRATION,
USA,NEW GUINEA,DAGUA,-3.416666667,143.3333333,6/15/1944,AIRDROME,
USA,BISMARK ARCHIPELAGO,LINDENHAFEN,-6.216666667,150.4666667,1/27/1944,UNIDENTIFIED TARGET,
USA,CHINA,CHEFANG,24.25,98.3,11/20/1944,UNIDENTIFIED TARGET,
USA,BORNEO,BALIK PAPAN,-1.25,116.8333333,7/1/1945,GROUND SUPPORT,
USA,PHILIPPINE ISLANDS,BAGUIO,16.41666667,120.5833333,4/8/1945,TOWN,
USA,SOLOMON ISLANDS,BUKA,-5.416666667,154.7,12/7/1943,UNIDENTIFIED TARGET,
USA,ITALY,MILAZZO,38.2,15.25,7/26/1943,,10
USA,BURMA,MAN PWE,22.85,97.61666667,1/26/1945,RAILROAD BRIDGE,
GREAT BRITAIN,SICILY,COMISO,36.99,14.61,2/21/1941,,
NEW ZEALAND,NEW IRELAND,KAVIENG SWEEP,-2.583333333,150.8333333,2/10/1945,VARIOUS TARGETS,
USA,CHINA,ICHANG,30.7,111.3333333,5/29/1943,TROOP CONCENTRATION,
USA,FORMOSA AND RYUKYU ISLANDS,TAKAO,22.63333333,120.2833333,2/24/1945,RAILROAD YARDS,
USA,MARCUS ISLANDS,MARCUS ISLAND,24.2,153.75,6/24/1945,AIRFIELD,
NEW ZEALAND,NEW IRELAND,KAVIENG SWEEP,-2.583333333,150.8333333,1/14/1945,VARIOUS TARGETS,
USA,PHILIPPINE ISLANDS,TANGADON,17.5,121.5,3/23/1945,AREA,
USA,FORMOSA AND RYUKYU ISLANDS,FORMOSA,24,121,5/8/1945,UNIDENTIFIED TARGET,
USA,NEW GUINEA,SARMI,-1.833333333,138.75,7/5/1944,UNIDENTIFIED TARGET,
USA,NEW GUINEA,BUNA,-8.666666667,148.4166667,11/21/1942,GUN POSITIONS,
USA,NEW GUINEA,SANANANDA ROADS,-8.666666667,148.4166667,1/13/1943,UNIDENTIFIED TARGET,
USA,CAROLINE ISLANDS,DUBLON ISLAND,7.383333333,151.8833333,4/24/1944,TOWN,
USA,NEW GUINEA,EFOGI,-9.133333333,147.6666667,9/7/1942,VILLAGE,
USA,ITALY,SANTO STEFANO CAMAS,38.02,14.35,7/23/1943,,740
